{"AF": [{"name": "Ashkāsham", "state": "", "lat": "36.68333000", "lng": "71.53333000"}, {"name": "Fayzabad", "state": "", "lat": "37.11664000", "lng": "70.58002000"}, {"name": "Jurm", "state": "", "lat": "36.86477000", "lng": "70.83421000"}, {"name": "Khandūd", "state": "", "lat": "36.95127000", "lng": "72.31800000"}, {"name": "Rāghistān", "state": "", "lat": "37.66079000", "lng": "70.67346000"}, {"name": "Wākhān", "state": "", "lat": "37.05710000", "lng": "73.34928000"}, {"name": "Ghormach", "state": "", "lat": "35.73062000", "lng": "63.78264000"}, {"name": "Qala i Naw", "state": "", "lat": "34.98735000", "lng": "63.12891000"}, {"name": "Baghlān", "state": "", "lat": "36.13068000", "lng": "68.70829000"}, {"name": "Ḩukūmatī Dahanah-ye Ghōrī", "state": "", "lat": "35.90617000", "lng": "68.48869000"}, {"name": "Nahrīn", "state": "", "lat": "36.06490000", "lng": "69.13343000"}, {"name": "Pul-e Khumrī", "state": "", "lat": "35.94458000", "lng": "68.71512000"}, {"name": "Balkh", "state": "", "lat": "36.75635000", "lng": "66.89720000"}, {"name": "Dowlatābād", "state": "", "lat": "36.98821000", "lng": "66.82069000"}, {"name": "Khulm", "state": "", "lat": "36.69736000", "lng": "67.69826000"}, {"name": "Lab-Sar", "state": "", "lat": "36.02634000", "lng": "66.83799000"}, {"name": "Mazār-e Sharīf", "state": "", "lat": "36.70904000", "lng": "67.11087000"}, {"name": "Qarchī Gak", "state": "", "lat": "37.03999000", "lng": "66.78891000"}, {"name": "Bāmyān", "state": "", "lat": "34.82156000", "lng": "67.82734000"}, {"name": "Panjāb", "state": "", "lat": "34.38795000", "lng": "67.02327000"}, {"name": "Nīlī", "state": "", "lat": "33.76329000", "lng": "66.07617000"}, {"name": "Farah", "state": "", "lat": "32.37451000", "lng": "62.11638000"}, {"name": "Andkhoy", "state": "", "lat": "36.95293000", "lng": "65.12376000"}, {"name": "Maymana", "state": "", "lat": "35.92139000", "lng": "64.78361000"}, {"name": "Ghazni", "state": "", "lat": "33.55391000", "lng": "68.42096000"}, {"name": "Fayrōz Kōh", "state": "", "lat": "34.51952000", "lng": "65.25093000"}, {"name": "Shahrak", "state": "", "lat": "34.10737000", "lng": "64.30520000"}, {"name": "‘Alāqahdārī Dīshū", "state": "", "lat": "30.43206000", "lng": "63.29802000"}, {"name": "Gereshk", "state": "", "lat": "31.82089000", "lng": "64.57005000"}, {"name": "Lashkar Gāh", "state": "", "lat": "31.59382000", "lng": "64.37161000"}, {"name": "Markaz-e Ḩukūmat-e Darwēshān", "state": "", "lat": "31.13231000", "lng": "64.19340000"}, {"name": "Sangīn", "state": "", "lat": "32.07275000", "lng": "64.83590000"}, {"name": "Chahār Burj", "state": "", "lat": "34.24475000", "lng": "62.19165000"}, {"name": "Ghōriyān", "state": "", "lat": "34.34480000", "lng": "61.49321000"}, {"name": "Herāt", "state": "", "lat": "34.34817000", "lng": "62.19967000"}, {"name": "Kafir Qala", "state": "", "lat": "34.66667000", "lng": "61.06667000"}, {"name": "Karukh", "state": "", "lat": "34.48108000", "lng": "62.58630000"}, {"name": "Kuhsān", "state": "", "lat": "34.65389000", "lng": "61.19778000"}, {"name": "Kushk", "state": "", "lat": "33.29565000", "lng": "61.95221000"}, {"name": "Qarah Bāgh", "state": "", "lat": "34.94023000", "lng": "61.77589000"}, {"name": "Shīnḏanḏ", "state": "", "lat": "33.30294000", "lng": "62.14740000"}, {"name": "Tīr Pul", "state": "", "lat": "34.59431000", "lng": "61.26895000"}, {"name": "Zindah Jān", "state": "", "lat": "34.34264000", "lng": "61.74675000"}, {"name": "Āqchah", "state": "", "lat": "36.90500000", "lng": "66.18341000"}, {"name": "Darzāb", "state": "", "lat": "35.97744000", "lng": "65.37828000"}, {"name": "Qarqīn", "state": "", "lat": "37.41853000", "lng": "66.04358000"}, {"name": "Shibirghān", "state": "", "lat": "36.66757000", "lng": "65.75290000"}, {"name": "Kabul", "state": "", "lat": "34.52813000", "lng": "69.17233000"}, {"name": "Mīr Bachah Kōṯ", "state": "", "lat": "34.74999000", "lng": "69.11899000"}, {"name": "Paghmān", "state": "", "lat": "34.58787000", "lng": "68.95091000"}, {"name": "Kandahār", "state": "", "lat": "31.61332000", "lng": "65.71013000"}, {"name": "Sidqābād", "state": "", "lat": "35.02298000", "lng": "69.35112000"}, {"name": "Khōst", "state": "", "lat": "33.33951000", "lng": "69.92041000"}, {"name": "Asadabad", "state": "", "lat": "34.87311000", "lng": "71.14697000"}, {"name": "Āsmār", "state": "", "lat": "35.03333000", "lng": "71.35809000"}, {"name": "Dasht-e Archī", "state": "", "lat": "37.13333000", "lng": "69.16667000"}, {"name": "Imām Şāḩib", "state": "", "lat": "37.18897000", "lng": "68.93644000"}, {"name": "Khanabad", "state": "", "lat": "36.68250000", "lng": "69.11556000"}, {"name": "Kunduz", "state": "", "lat": "36.72895000", "lng": "68.85700000"}, {"name": "Qarāwul", "state": "", "lat": "37.21959000", "lng": "68.78020000"}, {"name": "Mehtar Lām", "state": "", "lat": "34.67139000", "lng": "70.20944000"}, {"name": "Baraki Barak", "state": "", "lat": "33.96744000", "lng": "68.94920000"}, {"name": "Ḩukūmatī Azrah", "state": "", "lat": "34.17355000", "lng": "69.64573000"}, {"name": "Pul-e ‘Alam", "state": "", "lat": "33.99529000", "lng": "69.02274000"}, {"name": "Bāsawul", "state": "", "lat": "34.24749000", "lng": "70.87218000"}, {"name": "Jalālābād", "state": "", "lat": "34.42647000", "lng": "70.45153000"}, {"name": "Khāsh", "state": "", "lat": "31.52919000", "lng": "62.79055000"}, {"name": "Mīrābād", "state": "", "lat": "30.43624000", "lng": "61.83830000"}, {"name": "Rūdbār", "state": "", "lat": "30.15000000", "lng": "62.60000000"}, {"name": "Zaranj", "state": "", "lat": "30.95962000", "lng": "61.86037000"}, {"name": "Pārūn", "state": "", "lat": "35.42064000", "lng": "70.92261000"}, {"name": "Gardez", "state": "", "lat": "33.59744000", "lng": "69.22592000"}, {"name": "Saṟōbī", "state": "", "lat": "32.75221000", "lng": "69.04587000"}, {"name": "Zaṟah Sharan", "state": "", "lat": "33.14641000", "lng": "68.79213000"}, {"name": "Zarghūn Shahr", "state": "", "lat": "32.84734000", "lng": "68.44573000"}, {"name": "Bāzārak", "state": "", "lat": "35.31292000", "lng": "69.51519000"}, {"name": "Charikar", "state": "", "lat": "35.01361000", "lng": "69.17139000"}, {"name": "Jabal os Saraj", "state": "", "lat": "35.11833000", "lng": "69.23778000"}, {"name": "Aībak", "state": "", "lat": "36.26468000", "lng": "68.01551000"}, {"name": "Chīras", "state": "", "lat": "35.41674000", "lng": "65.98234000"}, {"name": "Larkird", "state": "", "lat": "35.48936000", "lng": "66.66409000"}, {"name": "Qal‘ah-ye Shahr", "state": "", "lat": "35.54729000", "lng": "65.56760000"}, {"name": "Sang-e Chārak", "state": "", "lat": "35.84972000", "lng": "66.43694000"}, {"name": "Sar-e Pul", "state": "", "lat": "36.21544000", "lng": "65.93249000"}, {"name": "Tagāw-Bāy", "state": "", "lat": "35.69941000", "lng": "66.06164000"}, {"name": "Tukzār", "state": "", "lat": "35.94831000", "lng": "66.42132000"}, {"name": "Ārt Khwājah", "state": "", "lat": "37.08571000", "lng": "69.47958000"}, {"name": "Taloqan", "state": "", "lat": "36.73605000", "lng": "69.53451000"}, {"name": "Tarinkot", "state": "", "lat": "32.62998000", "lng": "65.87806000"}, {"name": "Uruzgān", "state": "", "lat": "32.92775000", "lng": "66.63253000"}, {"name": "Chaki Wardak", "state": "", "lat": "34.29000000", "lng": "68.58000000"}, {"name": "Day Mirdad", "state": "", "lat": "34.50000000", "lng": "69.00000000"}, {"name": "Hisa-i-Awali Bihsud", "state": "", "lat": "34.65000000", "lng": "68.18000000"}, {"name": "Jaghatu", "state": "", "lat": "34.08000000", "lng": "68.45000000"}, {"name": "Jalrez", "state": "", "lat": "34.52000000", "lng": "68.78000000"}, {"name": "Maidan Shahr", "state": "", "lat": "34.38000000", "lng": "68.54000000"}, {"name": "Markaz-i-Bihsud", "state": "", "lat": "34.55000000", "lng": "67.80000000"}, {"name": "Nerkh", "state": "", "lat": "34.49000000", "lng": "68.51000000"}, {"name": "Sayed Abad", "state": "", "lat": "34.00000000", "lng": "68.63000000"}, {"name": "Qalāt", "state": "", "lat": "32.10575000", "lng": "66.90833000"}], "AX": [{"name": "Bomarsund", "state": "", "lat": "60.21234000", "lng": "20.24023000"}, {"name": "Finström", "state": "", "lat": "60.26667000", "lng": "19.93333000"}, {"name": "Godby", "state": "", "lat": "60.22995000", "lng": "19.98810000"}, {"name": "Hammarland", "state": "", "lat": "60.21667000", "lng": "19.75000000"}, {"name": "Jomala", "state": "", "lat": "60.14902000", "lng": "19.95100000"}, {"name": "Lemland", "state": "", "lat": "60.07178000", "lng": "20.08472000"}, {"name": "Saltvik", "state": "", "lat": "60.28333000", "lng": "20.05000000"}, {"name": "Sund", "state": "", "lat": "60.25000000", "lng": "20.11667000"}, {"name": "Tjudö", "state": "", "lat": "60.33333000", "lng": "19.95000000"}, {"name": "Yomala", "state": "", "lat": "60.16689000", "lng": "19.93341000"}, {"name": "Ytterby", "state": "", "lat": "60.16667000", "lng": "20.01667000"}, {"name": "Mariehamn", "state": "", "lat": "60.09726000", "lng": "19.93481000"}], "AL": [{"name": "Banaj", "state": "", "lat": "40.82492000", "lng": "19.84074000"}, {"name": "Bashkia Berat", "state": "", "lat": "40.69997000", "lng": "19.94983000"}, {"name": "Bashkia Kuçovë", "state": "", "lat": "40.82489000", "lng": "19.95350000"}, {"name": "Bashkia Poliçan", "state": "", "lat": "40.58608000", "lng": "20.04535000"}, {"name": "Bashkia Skrapar", "state": "", "lat": "40.56036000", "lng": "20.25477000"}, {"name": "Berat", "state": "", "lat": "40.70583000", "lng": "19.95222000"}, {"name": "Çorovodë", "state": "", "lat": "40.50417000", "lng": "20.22722000"}, {"name": "Kuçovë", "state": "", "lat": "40.80028000", "lng": "19.91667000"}, {"name": "Poliçan", "state": "", "lat": "40.61222000", "lng": "20.09806000"}, {"name": "Rrethi i Beratit", "state": "", "lat": "40.66667000", "lng": "20.00000000"}, {"name": "Rrethi i Kuçovës", "state": "", "lat": "40.83333000", "lng": "19.91667000"}, {"name": "Rrethi i Skraparit", "state": "", "lat": "40.55000000", "lng": "20.26667000"}, {"name": "Skrapar", "state": "", "lat": "40.54071390", "lng": "20.10188400"}, {"name": "Ura Vajgurore", "state": "", "lat": "40.76889000", "lng": "19.87778000"}, {"name": "Bashkia Bulqizë", "state": "", "lat": "41.47152000", "lng": "20.33192000"}, {"name": "Bashkia Klos", "state": "", "lat": "41.50826000", "lng": "20.07107000"}, {"name": "Bashkia Mat", "state": "", "lat": "41.63317000", "lng": "20.01228000"}, {"name": "Bulqizë", "state": "", "lat": "41.49167000", "lng": "20.22194000"}, {"name": "Burrel", "state": "", "lat": "41.61028000", "lng": "20.00889000"}, {"name": "Dibër", "state": "", "lat": "41.73099090", "lng": "20.18908580"}, {"name": "Klos", "state": "", "lat": "41.50694000", "lng": "20.08667000"}, {"name": "Mat", "state": "", "lat": "41.63648120", "lng": "19.84055600"}, {"name": "Peshkopi", "state": "", "lat": "41.68500000", "lng": "20.42889000"}, {"name": "Rrethi i Bulqizës", "state": "", "lat": "41.50000000", "lng": "20.33333000"}, {"name": "Rrethi i Dibrës", "state": "", "lat": "41.75000000", "lng": "20.33333000"}, {"name": "Rrethi i Matit", "state": "", "lat": "41.58333000", "lng": "20.08333000"}, {"name": "Ulëz", "state": "", "lat": "41.68278000", "lng": "19.89333000"}, {"name": "Bashkia Durrës", "state": "", "lat": "41.42743000", "lng": "19.48690000"}, {"name": "Bashkia Krujë", "state": "", "lat": "41.50091000", "lng": "19.72571000"}, {"name": "Bashkia Shijak", "state": "", "lat": "41.33558000", "lng": "19.58977000"}, {"name": "Durrës", "state": "", "lat": "41.33139290", "lng": "19.42515790"}, {"name": "Durrës District", "state": "", "lat": "41.31660000", "lng": "19.45000000"}, {"name": "Fushë-Krujë", "state": "", "lat": "41.47833000", "lng": "19.71778000"}, {"name": "Krujë", "state": "", "lat": "41.50917000", "lng": "19.79278000"}, {"name": "Rrethi i Krujës", "state": "", "lat": "41.55000000", "lng": "19.75000000"}, {"name": "Shijak", "state": "", "lat": "41.34556000", "lng": "19.56722000"}, {"name": "Sukth", "state": "", "lat": "41.38056000", "lng": "19.53778000"}, {"name": "Gramsh", "state": "", "lat": "40.86614460", "lng": "20.17637010"}, {"name": "Librazhd", "state": "", "lat": "41.18323980", "lng": "20.30362480"}, {"name": "Peqin", "state": "", "lat": "41.04641030", "lng": "19.74050040"}, {"name": "Ballsh", "state": "", "lat": "40.59889000", "lng": "19.73472000"}, {"name": "Bashkia Divjakë", "state": "", "lat": "40.95716000", "lng": "19.52364000"}, {"name": "Bashkia Fier", "state": "", "lat": "40.72937000", "lng": "19.48690000"}, {"name": "Bashkia Mallakastër", "state": "", "lat": "40.55669000", "lng": "19.77347000"}, {"name": "Bashkia Patos", "state": "", "lat": "40.67793000", "lng": "19.65591000"}, {"name": "Divjakë", "state": "", "lat": "40.99667000", "lng": "19.52944000"}, {"name": "Fier", "state": "", "lat": "40.72389000", "lng": "19.55611000"}, {"name": "Fier-Çifçi", "state": "", "lat": "40.71667000", "lng": "19.56667000"}, {"name": "Lushnjë", "state": "", "lat": "40.94194000", "lng": "19.70500000"}, {"name": "Mallakastër", "state": "", "lat": "40.54335440", "lng": "19.62480730"}, {"name": "Patos", "state": "", "lat": "40.68333000", "lng": "19.61944000"}, {"name": "Patos Fshat", "state": "", "lat": "40.64278000", "lng": "19.65083000"}, {"name": "Roskovec", "state": "", "lat": "40.73750000", "lng": "19.70222000"}, {"name": "Rrethi i Mallakastrës", "state": "", "lat": "40.55000000", "lng": "19.78333000"}, {"name": "Bashkia Kelcyrë", "state": "", "lat": "40.36196000", "lng": "20.16476000"}, {"name": "Bashkia Libohovë", "state": "", "lat": "40.10754000", "lng": "20.25753000"}, {"name": "Bashkia Memaliaj", "state": "", "lat": "40.41524000", "lng": "19.96911000"}, {"name": "Bashkia Përmet", "state": "", "lat": "40.23246000", "lng": "20.41091000"}, {"name": "Bashkia Tepelenë", "state": "", "lat": "40.26736000", "lng": "19.97003000"}, {"name": "Dropull", "state": "", "lat": "39.98584000", "lng": "20.30529000"}, {"name": "Gjinkar", "state": "", "lat": "40.19944000", "lng": "20.40611000"}, {"name": "Gjirokastër", "state": "", "lat": "40.07583000", "lng": "20.13889000"}, {"name": "Këlcyrë", "state": "", "lat": "40.31306000", "lng": "20.18944000"}, {"name": "Lazarat", "state": "", "lat": "40.04667000", "lng": "20.14750000"}, {"name": "Libohovë", "state": "", "lat": "40.03111000", "lng": "20.26306000"}, {"name": "Memaliaj", "state": "", "lat": "40.35167000", "lng": "19.98028000"}, {"name": "Përmet", "state": "", "lat": "40.23361000", "lng": "20.35167000"}, {"name": "Tepelenë", "state": "", "lat": "40.29583000", "lng": "20.01917000"}, {"name": "Bashkia Devoll", "state": "", "lat": "40.60078000", "lng": "20.93814000"}, {"name": "Bashkia Kolonjë", "state": "", "lat": "40.31420000", "lng": "20.61482000"}, {"name": "Bashkia Maliq", "state": "", "lat": "40.75508000", "lng": "20.60748000"}, {"name": "Bilisht", "state": "", "lat": "40.62750000", "lng": "20.99000000"}, {"name": "Devoll", "state": "", "lat": "40.58998300", "lng": "20.74813130"}, {"name": "Ersekë", "state": "", "lat": "40.33778000", "lng": "20.67889000"}, {"name": "Kolonjë", "state": "", "lat": "40.28305450", "lng": "20.45647260"}, {"name": "Korçë", "state": "", "lat": "40.61861000", "lng": "20.78083000"}, {"name": "Leskovik", "state": "", "lat": "40.15139000", "lng": "20.59722000"}, {"name": "Libonik", "state": "", "lat": "40.70444000", "lng": "20.70861000"}, {"name": "Maliq", "state": "", "lat": "40.70583000", "lng": "20.69972000"}, {"name": "Mborje", "state": "", "lat": "40.60333000", "lng": "20.80306000"}, {"name": "Pogradec", "state": "", "lat": "40.90250000", "lng": "20.65250000"}, {"name": "Pustec", "state": "", "lat": "40.83591000", "lng": "20.89405000"}, {"name": "Rrethi i Devollit", "state": "", "lat": "40.58333000", "lng": "20.91667000"}, {"name": "Rrethi i Kolonjës", "state": "", "lat": "40.25000000", "lng": "20.66667000"}, {"name": "Velçan", "state": "", "lat": "40.95472000", "lng": "20.46222000"}, {"name": "Voskopojë", "state": "", "lat": "40.63306000", "lng": "20.58889000"}, {"name": "Bajram Curri", "state": "", "lat": "42.35734000", "lng": "20.07679000"}, {"name": "Krumë", "state": "", "lat": "42.19694000", "lng": "20.41333000"}, {"name": "Kukës", "state": "", "lat": "42.07694000", "lng": "20.42194000"}, {"name": "Rrethi i Hasit", "state": "", "lat": "42.16667000", "lng": "20.33333000"}, {"name": "Rrethi i Kukësit", "state": "", "lat": "42.00000000", "lng": "20.33333000"}, {"name": "Tropojë", "state": "", "lat": "42.37624000", "lng": "19.74539290"}, {"name": "Bashkia Kurbin", "state": "", "lat": "41.62215000", "lng": "19.70734000"}, {"name": "Bashkia Lezhë", "state": "", "lat": "41.81320000", "lng": "19.64121000"}, {"name": "Bashkia Mirditë", "state": "", "lat": "41.80953000", "lng": "19.99024000"}, {"name": "Kurbin", "state": "", "lat": "41.63891890", "lng": "19.69333630"}, {"name": "Kurbnesh", "state": "", "lat": "41.77972000", "lng": "20.08361000"}, {"name": "Laç", "state": "", "lat": "41.63556000", "lng": "19.71306000"}, {"name": "Lezhë", "state": "", "lat": "41.78361000", "lng": "19.64361000"}, {"name": "Mamurras", "state": "", "lat": "41.57750000", "lng": "19.69222000"}], "DZ": [{"name": "Adrar", "state": "", "lat": "27.87429000", "lng": "-0.29388000"}, {"name": "Aoulef", "state": "", "lat": "26.96667000", "lng": "1.08333000"}, {"name": "Reggane", "state": "", "lat": "26.71576000", "lng": "0.17140000"}, {"name": "Timimoun", "state": "", "lat": "29.26388000", "lng": "0.23098000"}, {"name": "Aïn Defla", "state": "", "lat": "36.26405000", "lng": "1.96790000"}, {"name": "El Abadia", "state": "", "lat": "36.26951000", "lng": "1.68609000"}, {"name": "El Attaf", "state": "", "lat": "36.22393000", "lng": "1.67187000"}, {"name": "Khemis Miliana", "state": "", "lat": "36.26104000", "lng": "2.22015000"}, {"name": "Theniet el Had", "state": "", "lat": "35.87111000", "lng": "2.02806000"}, {"name": "Aïn Temouchent", "state": "", "lat": "35.29749000", "lng": "-1.14037000"}, {"name": "Beni Saf", "state": "", "lat": "35.30099000", "lng": "-1.38226000"}, {"name": "El Amria", "state": "", "lat": "35.52439000", "lng": "-1.01577000"}, {"name": "El Malah", "state": "", "lat": "35.39137000", "lng": "-1.09238000"}, {"name": "Hammam Bou Hadjar", "state": "", "lat": "35.37889000", "lng": "-0.96778000"}, {"name": "Aïn Taya", "state": "", "lat": "36.79333000", "lng": "3.28694000"}, {"name": "Algiers", "state": "", "lat": "36.73225000", "lng": "3.08746000"}, {"name": "Bab Ezzouar", "state": "", "lat": "36.72615000", "lng": "3.18291000"}, {"name": "Birkhadem", "state": "", "lat": "36.71499000", "lng": "3.05002000"}, {"name": "Bordj el Kiffan", "state": "", "lat": "36.74871000", "lng": "3.19249000"}, {"name": "Dar el Beïda", "state": "", "lat": "36.71333000", "lng": "3.21250000"}, {"name": "Rouiba", "state": "", "lat": "36.73829000", "lng": "3.28079000"}, {"name": "Annaba", "state": "", "lat": "36.90000000", "lng": "7.76667000"}, {"name": "Berrahal", "state": "", "lat": "36.83528000", "lng": "7.45333000"}, {"name": "Drean", "state": "", "lat": "36.68482000", "lng": "7.75111000"}, {"name": "El Hadjar", "state": "", "lat": "36.80377000", "lng": "7.73684000"}, {"name": "Aïn Touta", "state": "", "lat": "35.37675000", "lng": "5.90001000"}, {"name": "Arris", "state": "", "lat": "35.25881000", "lng": "6.34706000"}, {"name": "Barika", "state": "", "lat": "35.38901000", "lng": "5.36584000"}, {"name": "Batna", "state": "", "lat": "35.55597000", "lng": "6.17414000"}, {"name": "Boumagueur", "state": "", "lat": "35.50520000", "lng": "5.55250000"}, {"name": "Merouana", "state": "", "lat": "35.63106000", "lng": "5.91186000"}, {"name": "Râs el Aïoun", "state": "", "lat": "35.67384000", "lng": "5.64530000"}, {"name": "Tazoult-Lambese", "state": "", "lat": "35.48171000", "lng": "6.26074000"}, {"name": "Béchar", "state": "", "lat": "31.61667000", "lng": "-2.21667000"}, {"name": "Akbou", "state": "", "lat": "36.45750000", "lng": "4.53494000"}, {"name": "Amizour", "state": "", "lat": "36.64022000", "lng": "4.90131000"}, {"name": "Barbacha", "state": "", "lat": "36.56667000", "lng": "4.96667000"}, {"name": "Bejaïa", "state": "", "lat": "36.75587000", "lng": "5.08433000"}, {"name": "el hed", "state": "", "lat": "36.65000000", "lng": "4.77361000"}, {"name": "El Kseur", "state": "", "lat": "36.67942000", "lng": "4.85550000"}, {"name": "Feraoun", "state": "", "lat": "36.56041000", "lng": "4.85454000"}, {"name": "Seddouk", "state": "", "lat": "36.54722000", "lng": "4.68611000"}, {"name": "Biskra", "state": "", "lat": "34.85038000", "lng": "5.72805000"}, {"name": "Oumache", "state": "", "lat": "34.69292000", "lng": "5.68092000"}, {"name": "Sidi Khaled", "state": "", "lat": "34.38700000", "lng": "4.98785000"}, {"name": "Sidi Okba", "state": "", "lat": "34.74512000", "lng": "5.89833000"}, {"name": "Tolga", "state": "", "lat": "34.72224000", "lng": "5.37845000"}, {"name": "Zeribet el Oued", "state": "", "lat": "34.68284000", "lng": "6.51109000"}, {"name": "Beni Mered", "state": "", "lat": "36.52389000", "lng": "2.86131000"}, {"name": "Blida", "state": "", "lat": "36.47004000", "lng": "2.82770000"}, {"name": "Boû Arfa", "state": "", "lat": "36.46298000", "lng": "2.81464000"}, {"name": "Boufarik", "state": "", "lat": "36.57413000", "lng": "2.91214000"}, {"name": "Bougara", "state": "", "lat": "36.54178000", "lng": "3.08100000"}, {"name": "Bouinan", "state": "", "lat": "36.53167000", "lng": "2.99194000"}, {"name": "Chebli", "state": "", "lat": "36.57722000", "lng": "3.00917000"}, {"name": "Chiffa", "state": "", "lat": "36.46293000", "lng": "2.73873000"}, {"name": "Larbaâ", "state": "", "lat": "36.56471000", "lng": "3.15434000"}, {"name": "Meftah", "state": "", "lat": "36.62040000", "lng": "3.22248000"}, {"name": "Sidi Moussa", "state": "", "lat": "36.60637000", "lng": "3.08783000"}, {"name": "Souma", "state": "", "lat": "36.51833000", "lng": "2.90528000"}, {"name": "Bordj Bou Arreridj", "state": "", "lat": "36.07321000", "lng": "4.76108000"}, {"name": "Bordj Ghdir", "state": "", "lat": "35.90111000", "lng": "4.89806000"}, {"name": "Bordj Zemoura", "state": "", "lat": "36.27462000", "lng": "4.85668000"}, {"name": "El Achir", "state": "", "lat": "36.06386000", "lng": "4.62744000"}, {"name": "Mansourah", "state": "", "lat": "36.08725000", "lng": "4.45192000"}, {"name": "Melouza", "state": "", "lat": "35.97999000", "lng": "4.18665000"}, {"name": "Râs el Oued", "state": "", "lat": "35.94410000", "lng": "5.03107000"}, {"name": "Aïn Bessem", "state": "", "lat": "36.29333000", "lng": "3.67319000"}, {"name": "Bouïra", "state": "", "lat": "36.37489000", "lng": "3.90200000"}, {"name": "Chorfa", "state": "", "lat": "36.36505000", "lng": "4.32636000"}, {"name": "Draa el Mizan", "state": "", "lat": "36.53628000", "lng": "3.83340000"}, {"name": "Lakhdaria", "state": "", "lat": "36.56463000", "lng": "3.59330000"}, {"name": "Sour el Ghozlane", "state": "", "lat": "36.14766000", "lng": "3.69123000"}, {"name": "Arbatache", "state": "", "lat": "36.63773000", "lng": "3.37127000"}, {"name": "Beni Amrane", "state": "", "lat": "36.66774000", "lng": "3.59115000"}, {"name": "Boudouaou", "state": "", "lat": "36.72735000", "lng": "3.40995000"}, {"name": "Boumerdas", "state": "", "lat": "36.76639000", "lng": "3.47717000"}, {"name": "Chabet el Ameur", "state": "", "lat": "36.63709000", "lng": "3.69474000"}, {"name": "Dellys", "state": "", "lat": "36.91716000", "lng": "3.91311000"}, {"name": "Khemis el Khechna", "state": "", "lat": "36.64997000", "lng": "3.33080000"}, {"name": "Makouda", "state": "", "lat": "36.78567000", "lng": "4.06273000"}, {"name": "Naciria", "state": "", "lat": "36.74625000", "lng": "3.83163000"}, {"name": "Ouled Moussa", "state": "", "lat": "36.68394000", "lng": "3.36661000"}, {"name": "Reghaïa", "state": "", "lat": "36.73587000", "lng": "3.34018000"}, {"name": "Tadmaït", "state": "", "lat": "36.74413000", "lng": "3.90045000"}, {"name": "Thenia", "state": "", "lat": "36.72544000", "lng": "3.55665000"}, {"name": "Tizi Gheniff", "state": "", "lat": "36.58839000", "lng": "3.77445000"}, {"name": "Abou el Hassan", "state": "", "lat": "36.41657000", "lng": "1.19616000"}, {"name": "Boukadir", "state": "", "lat": "36.06629000", "lng": "1.12602000"}, {"name": "Chlef", "state": "", "lat": "36.16525000", "lng": "1.33452000"}, {"name": "Ech Chettia", "state": "", "lat": "36.19591000", "lng": "1.25537000"}, {"name": "Oued Fodda", "state": "", "lat": "36.18503000", "lng": "1.53299000"}, {"name": "Oued Sly", "state": "", "lat": "36.10124000", "lng": "1.19949000"}, {"name": "Sidi Akkacha", "state": "", "lat": "36.46472000", "lng": "1.30258000"}, {"name": "’Aïn Abid", "state": "", "lat": "36.23194000", "lng": "6.94333000"}, {"name": "Aïn Smara", "state": "", "lat": "36.26740000", "lng": "6.50135000"}, {"name": "Constantine", "state": "", "lat": "36.36500000", "lng": "6.61472000"}, {"name": "Didouche Mourad", "state": "", "lat": "36.45250000", "lng": "6.63639000"}, {"name": "El Khroub", "state": "", "lat": "36.26333000", "lng": "6.69361000"}, {"name": "Hamma Bouziane", "state": "", "lat": "36.41205000", "lng": "6.59603000"}], "AS": [{"name": "Ituʻau", "state": "", "lat": "-14.30616430", "lng": "-170.80691440"}, {"name": "Maʻoputasi", "state": "", "lat": "-14.25216850", "lng": "-170.74187670"}, {"name": "Saʻole", "state": "", "lat": "-14.29995700", "lng": "-170.61763370"}, {"name": "Sua", "state": "", "lat": "-14.27710880", "lng": "-170.71442630"}, {"name": "Vaifanua", "state": "", "lat": "-14.25578040", "lng": "-170.76301810"}, {"name": "Faleasao", "state": "", "lat": "-14.20385490", "lng": "-169.54907370"}, {"name": "Fitiuta", "state": "", "lat": "-14.20386340", "lng": "-169.51690440"}, {"name": "Ofu", "state": "", "lat": "-14.17135950", "lng": "-169.71939120"}, {"name": "Olosega", "state": "", "lat": "-14.17422270", "lng": "-169.63981240"}, {"name": "Tau", "state": "", "lat": "-14.24215010", "lng": "-169.55101650"}, {"name": "Lealataua", "state": "", "lat": "-14.32261520", "lng": "-170.90849930"}, {"name": "Leasina", "state": "", "lat": "-14.29581640", "lng": "-170.80459320"}, {"name": "Tualatai", "state": "", "lat": "-14.37923540", "lng": "-170.81033120"}, {"name": "Tualauta", "state": "", "lat": "-14.35876890", "lng": "-170.75583320"}], "AD": [{"name": "Andorra la Vella", "state": "", "lat": "42.50779000", "lng": "1.52109000"}, {"name": "Canillo", "state": "", "lat": "42.56760000", "lng": "1.59756000"}, {"name": "El Tarter", "state": "", "lat": "42.57952000", "lng": "1.65362000"}, {"name": "Encamp", "state": "", "lat": "42.53474000", "lng": "1.58014000"}, {"name": "Pas de la Casa", "state": "", "lat": "42.54277000", "lng": "1.73361000"}, {"name": "les Escaldes", "state": "", "lat": "42.50729000", "lng": "1.53414000"}, {"name": "Arinsal", "state": "", "lat": "42.57205000", "lng": "1.48453000"}, {"name": "la Massana", "state": "", "lat": "42.54499000", "lng": "1.51483000"}, {"name": "Ordino", "state": "", "lat": "42.55623000", "lng": "1.53319000"}, {"name": "Sant Julià de Lòria", "state": "", "lat": "42.46372000", "lng": "1.49129000"}], "AO": [{"name": "Ambriz", "state": "", "lat": "-7.85740000", "lng": "13.12510000"}, {"name": "Bula Atumba", "state": "", "lat": "-7.31170000", "lng": "14.31470000"}, {"name": "Caxito", "state": "", "lat": "-8.57848000", "lng": "13.66425000"}, {"name": "Dande", "state": "", "lat": "-8.11330000", "lng": "13.76520000"}, {"name": "Muxima", "state": "", "lat": "-9.58790000", "lng": "13.52510000"}, {"name": "Nambuangongo", "state": "", "lat": "-8.56560000", "lng": "13.65720000"}, {"name": "Pango Aluquém", "state": "", "lat": "-8.55440000", "lng": "13.58150000"}, {"name": "Úcua", "state": "", "lat": "-8.67240000", "lng": "13.68290000"}, {"name": "Baía Farta", "state": "", "lat": "-12.57660000", "lng": "13.47760000"}, {"name": "Balombo", "state": "", "lat": "-12.90460000", "lng": "13.59590000"}, {"name": "Benguela", "state": "", "lat": "-12.57626000", "lng": "13.40547000"}, {"name": "Bocoio", "state": "", "lat": "-12.53030000", "lng": "13.40420000"}, {"name": "Caimbambo", "state": "", "lat": "-12.61330000", "lng": "14.41940000"}, {"name": "Catumbela", "state": "", "lat": "-12.43002000", "lng": "13.54677000"}, {"name": "Chongoroi", "state": "", "lat": "-12.78880000", "lng": "13.79750000"}, {"name": "Cubal", "state": "", "lat": "-12.58850000", "lng": "14.42670000"}, {"name": "Ganda", "state": "", "lat": "-12.68250000", "lng": "14.42330000"}, {"name": "Lobito", "state": "", "lat": "-12.36440000", "lng": "13.53601000"}, {"name": "Sumbe", "state": "", "lat": "-11.20610000", "lng": "13.84480000"}, {"name": "Camacupa", "state": "", "lat": "-12.01667000", "lng": "17.48333000"}, {"name": "Catabola", "state": "", "lat": "-12.15000000", "lng": "17.28333000"}, {"name": "Chissamba", "state": "", "lat": "-12.16667000", "lng": "17.33333000"}, {"name": "Cuito", "state": "", "lat": "-12.38333000", "lng": "16.93333000"}, {"name": "Cabinda", "state": "", "lat": "-5.55000000", "lng": "12.20000000"}, {"name": "Menongue", "state": "", "lat": "-14.65850000", "lng": "17.69099000"}, {"name": "Quibala", "state": "", "lat": "-10.73366000", "lng": "14.97995000"}, {"name": "Sumbe", "state": "", "lat": "-11.20605000", "lng": "13.84371000"}, {"name": "Uacu Cungo", "state": "", "lat": "-11.35669000", "lng": "15.11719000"}, {"name": "Camabatela", "state": "", "lat": "-8.18812000", "lng": "15.37495000"}, {"name": "N’dalatando", "state": "", "lat": "-9.29782000", "lng": "14.91162000"}, {"name": "Ondjiva", "state": "", "lat": "-17.06667000", "lng": "15.73333000"}, {"name": "Caála", "state": "", "lat": "-12.85250000", "lng": "15.56056000"}, {"name": "Chela", "state": "", "lat": "-12.30261000", "lng": "15.43358000"}, {"name": "Huambo", "state": "", "lat": "-12.77611000", "lng": "15.73917000"}, {"name": "Longonjo", "state": "", "lat": "-12.90667000", "lng": "15.25333000"}, {"name": "Caconda", "state": "", "lat": "-13.73333000", "lng": "15.06667000"}, {"name": "Caluquembe", "state": "", "lat": "-13.92093000", "lng": "14.53476000"}, {"name": "Chibia", "state": "", "lat": "-15.23657000", "lng": "13.88468000"}, {"name": "Chicomba", "state": "", "lat": "-14.30788000", "lng": "14.98672000"}, {"name": "Chipindo", "state": "", "lat": "-13.86830000", "lng": "15.73277000"}, {"name": "Cuvango", "state": "", "lat": "-14.27693000", "lng": "16.31475000"}, {"name": "Gambos", "state": "", "lat": "-15.80926000", "lng": "14.07661000"}, {"name": "Humpata", "state": "", "lat": "-15.07250000", "lng": "13.36771000"}, {"name": "Jamba", "state": "", "lat": "-14.76294000", "lng": "15.83493000"}, {"name": "Lubango", "state": "", "lat": "-14.91717000", "lng": "13.49250000"}, {"name": "Matala", "state": "", "lat": "-15.23967000", "lng": "15.17246000"}, {"name": "Quilengues", "state": "", "lat": "-13.99213000", "lng": "13.76705000"}, {"name": "Quipungo", "state": "", "lat": "-15.12203000", "lng": "14.55953000"}, {"name": "Belas", "state": "", "lat": "-9.06875000", "lng": "13.16072000"}, {"name": "Cacuaco", "state": "", "lat": "-8.82960000", "lng": "13.29730000"}, {"name": "Cazenga", "state": "", "lat": "-8.82860000", "lng": "13.26650000"}, {"name": "Icolo e Bengo", "state": "", "lat": "-9.24191000", "lng": "13.73549000"}, {"name": "Luanda", "state": "", "lat": "-8.83682000", "lng": "13.23432000"}, {"name": "Talatona", "state": "", "lat": "-8.89570000", "lng": "13.19430000"}, {"name": "Viana", "state": "", "lat": "-8.90210000", "lng": "13.28610000"}, {"name": "Lucapa", "state": "", "lat": "-8.68337000", "lng": "20.27045000"}, {"name": "Cazaji", "state": "", "lat": "-11.06715000", "lng": "20.70148000"}, {"name": "Saurimo", "state": "", "lat": "-9.66078000", "lng": "20.39155000"}, {"name": "Malanje", "state": "", "lat": "-9.54015000", "lng": "16.34096000"}, {"name": "Léua", "state": "", "lat": "-11.65000000", "lng": "20.45000000"}, {"name": "Luau", "state": "", "lat": "-10.70727000", "lng": "22.22466000"}, {"name": "Luena", "state": "", "lat": "-11.78333000", "lng": "19.91667000"}, {"name": "Lumeje", "state": "", "lat": "-11.55000000", "lng": "20.78333000"}, {"name": "Bibala", "state": "", "lat": "-14.93330000", "lng": "13.68330000"}, {"name": "Camucuio", "state": "", "lat": "-15.45000000", "lng": "12.88330000"}, {"name": "Namibe", "state": "", "lat": "-15.19670000", "lng": "12.15220000"}, {"name": "Tombua", "state": "", "lat": "-15.78330000", "lng": "11.86670000"}, {"name": "Virei", "state": "", "lat": "-14.46670000", "lng": "13.26670000"}, {"name": "Uíge", "state": "", "lat": "-7.60874000", "lng": "15.06131000"}, {"name": "Mbanza Congo", "state": "", "lat": "-6.26703000", "lng": "14.24010000"}, {"name": "N'zeto", "state": "", "lat": "-7.23116000", "lng": "12.86660000"}, {"name": "Soio", "state": "", "lat": "-6.13490000", "lng": "12.36894000"}], "AG": [{"name": "Codrington", "state": "", "lat": "17.63333000", "lng": "-61.83333000"}, {"name": "Piggotts", "state": "", "lat": "17.11667000", "lng": "-61.80000000"}, {"name": "Potters Village", "state": "", "lat": "17.11337000", "lng": "-61.81962000"}, {"name": "Saint John’s", "state": "", "lat": "17.12096000", "lng": "-61.84329000"}, {"name": "Bolands", "state": "", "lat": "17.06565000", "lng": "-61.87466000"}, {"name": "Falmouth", "state": "", "lat": "17.02741000", "lng": "-61.78136000"}, {"name": "Liberta", "state": "", "lat": "17.04141000", "lng": "-61.79052000"}, {"name": "All Saints", "state": "", "lat": "17.06671000", "lng": "-61.79303000"}, {"name": "Parham", "state": "", "lat": "17.09682000", "lng": "-61.77046000"}], "AR": [{"name": "Agronomía", "state": "", "lat": "-34.59222640", "lng": "-58.49997640"}, {"name": "Almagro", "state": "", "lat": "-34.60985140", "lng": "-58.44322610"}, {"name": "Balvanera", "state": "", "lat": "-34.60928550", "lng": "-58.42375890"}, {"name": "Barracas", "state": "", "lat": "-34.64448730", "lng": "-58.40516880"}, {"name": "Belgrano", "state": "", "lat": "-34.55543270", "lng": "-58.47138570"}, {"name": "Boedo", "state": "", "lat": "-34.63038420", "lng": "-58.43974170"}, {"name": "Caballito", "state": "", "lat": "-34.61661920", "lng": "-58.46532990"}, {"name": "Chacarita", "state": "", "lat": "-34.58802750", "lng": "-58.47332730"}, {"name": "Coghlan", "state": "", "lat": "-34.56017320", "lng": "-58.48536760"}, {"name": "Colegiales", "state": "", "lat": "-34.57463180", "lng": "-58.46194700"}, {"name": "Constitución", "state": "", "lat": "-34.62577020", "lng": "-58.39393470"}, {"name": "Flores", "state": "", "lat": "-34.63528600", "lng": "-58.49881470"}, {"name": "Floresta", "state": "", "lat": "-34.62778190", "lng": "-58.50535160"}, {"name": "La Boca", "state": "", "lat": "-34.63755140", "lng": "-58.38229510"}, {"name": "La Paternal", "state": "", "lat": "-34.59636130", "lng": "-58.47783340"}, {"name": "Liniers", "state": "", "lat": "-34.64494830", "lng": "-58.53670290"}, {"name": "Mataderos", "state": "", "lat": "-34.65888530", "lng": "-58.52288120"}, {"name": "Monserrat", "state": "", "lat": "-34.61254060", "lng": "-58.38964190"}, {"name": "Monte Castro", "state": "", "lat": "-34.61876990", "lng": "-58.51743230"}, {"name": "Nueva Pompeya", "state": "", "lat": "-34.65005810", "lng": "-58.44252610"}, {"name": "Núñez", "state": "", "lat": "-34.54270030", "lng": "-58.48169430"}, {"name": "Palermo", "state": "", "lat": "-34.57335580", "lng": "-58.46221540"}, {"name": "Parque Avellaneda", "state": "", "lat": "-34.65075370", "lng": "-58.49842840"}, {"name": "Parque Chacabuco", "state": "", "lat": "-34.63713830", "lng": "-58.45953460"}, {"name": "Parque Chas", "state": "", "lat": "-34.58486150", "lng": "-58.49010630"}, {"name": "Parque Patricios", "state": "", "lat": "-34.63788690", "lng": "-58.42225860"}, {"name": "Puerto Madero", "state": "", "lat": "-34.61358660", "lng": "-58.37286850"}, {"name": "Recoleta", "state": "", "lat": "-34.58479060", "lng": "-58.41694250"}, {"name": "Retiro", "state": "", "lat": "-34.58936080", "lng": "-58.39738800"}, {"name": "Saavedra", "state": "", "lat": "-34.55431210", "lng": "-58.50975950"}, {"name": "San Cristóbal", "state": "", "lat": "-34.62423930", "lng": "-58.41215650"}, {"name": "San Nicolás", "state": "", "lat": "-34.60390370", "lng": "-58.39059120"}, {"name": "San Telmo", "state": "", "lat": "-34.62254210", "lng": "-58.38055780"}, {"name": "Vélez Sársfield", "state": "", "lat": "-34.63129820", "lng": "-58.51351920"}, {"name": "Versalles", "state": "", "lat": "-34.62915440", "lng": "-58.52963820"}, {"name": "Villa Crespo", "state": "", "lat": "-34.59811590", "lng": "-58.46174830"}, {"name": "Villa del Parque", "state": "", "lat": "-34.60587650", "lng": "-58.51064410"}, {"name": "Villa Devoto", "state": "", "lat": "-34.60046930", "lng": "-58.55443260"}, {"name": "Villa General Mitre", "state": "", "lat": "-34.61048970", "lng": "-58.47974190"}, {"name": "Villa Lugano", "state": "", "lat": "-34.67485910", "lng": "-58.49704580"}, {"name": "Villa Luro", "state": "", "lat": "-34.63500670", "lng": "-58.52269370"}, {"name": "Villa Ortúzar", "state": "", "lat": "-34.58148740", "lng": "-58.47898750"}, {"name": "Villa Pueyrredón", "state": "", "lat": "-34.58182550", "lng": "-58.52264930"}, {"name": "Villa Real", "state": "", "lat": "-34.61909340", "lng": "-58.53453420"}, {"name": "Villa Riachuelo", "state": "", "lat": "-34.69266220", "lng": "-58.48434810"}, {"name": "Villa Santa Rita", "state": "", "lat": "-34.61636020", "lng": "-58.49350310"}, {"name": "Villa Soldati", "state": "", "lat": "-34.66789240", "lng": "-58.46756510"}, {"name": "Villa Urquiza", "state": "", "lat": "-34.57192410", "lng": "-58.50934640"}, {"name": "Adolfo Alsina", "state": "", "lat": "-37.16054780", "lng": "-64.22506020"}, {"name": "Adolfo Gonzáles Chaves", "state": "", "lat": "-37.93801600", "lng": "-60.90296530"}, {"name": "Alberti", "state": "", "lat": "-35.02768320", "lng": "-60.58411980"}, {"name": "Almirante Brown", "state": "", "lat": "-34.83197240", "lng": "-58.45251410"}, {"name": "Arrecifes", "state": "", "lat": "-34.00603330", "lng": "-60.33782350"}, {"name": "Avellaneda", "state": "", "lat": "-34.66134140", "lng": "-58.38802660"}, {"name": "Ayacucho", "state": "", "lat": "-36.97372280", "lng": "-59.08902220"}, {"name": "Azul", "state": "", "lat": "-36.82779090", "lng": "-60.99253580"}, {"name": "Bahía Blanca", "state": "", "lat": "-38.58796980", "lng": "-62.50794130"}, {"name": "Balcarce", "state": "", "lat": "-37.75449560", "lng": "-58.93081520"}, {"name": "Baradero", "state": "", "lat": "-33.90652010", "lng": "-59.81822290"}, {"name": "Benito Juárez", "state": "", "lat": "-37.58593960", "lng": "-60.52379500"}, {"name": "Berazategui", "state": "", "lat": "-34.84334610", "lng": "-58.30738810"}, {"name": "Berisso", "state": "", "lat": "-34.89821320", "lng": "-57.90243650"}, {"name": "Bolívar", "state": "", "lat": "-36.28911980", "lng": "-61.78736580"}, {"name": "Bragado", "state": "", "lat": "-35.02574040", "lng": "-61.25370530"}, {"name": "Brandsen", "state": "", "lat": "-35.19510090", "lng": "-58.49818770"}, {"name": "Campana", "state": "", "lat": "-34.16079930", "lng": "-59.22022530"}, {"name": "Cañuelas", "state": "", "lat": "-35.15525400", "lng": "-59.03069800"}, {"name": "Capitán Sarmiento", "state": "", "lat": "-34.14170660", "lng": "-60.02221190"}, {"name": "Carlos Casares", "state": "", "lat": "-35.72219790", "lng": "-62.03779560"}, {"name": "Carlos Tejedor", "state": "", "lat": "-35.39445380", "lng": "-63.06241220"}, {"name": "Carmen de Areco", "state": "", "lat": "-34.41836420", "lng": "-60.23786820"}, {"name": "Castelli", "state": "", "lat": "-36.01838980", "lng": "-57.98088650"}, {"name": "Chacabuco", "state": "", "lat": "-34.63340080", "lng": "-60.65114680"}, {"name": "Chascomús", "state": "", "lat": "-35.59543280", "lng": "-58.56002660"}, {"name": "Chivilcoy", "state": "", "lat": "-34.90790700", "lng": "-60.28432600"}, {"name": "Colón", "state": "", "lat": "-33.85225870", "lng": "-61.40124400"}, {"name": "Coronel Dorrego", "state": "", "lat": "-38.64031010", "lng": "-61.77287250"}, {"name": "Coronel Pringles", "state": "", "lat": "-38.16604130", "lng": "-61.89518000"}, {"name": "Coronel Rosales", "state": "", "lat": "-38.81492060", "lng": "-62.14727610"}, {"name": "Coronel Suárez", "state": "", "lat": "-37.53029820", "lng": "-63.25323390"}, {"name": "Daireaux", "state": "", "lat": "-36.61930860", "lng": "-62.52352980"}, {"name": "Dolores", "state": "", "lat": "-36.41467360", "lng": "-58.32462490"}, {"name": "Ensenada", "state": "", "lat": "-34.84156190", "lng": "-58.06269460"}, {"name": "Escobar", "state": "", "lat": "-34.34251230", "lng": "-58.93997620"}, {"name": "Esteban Echeverríar", "state": "", "lat": "-34.82406180", "lng": "-58.63358570"}, {"name": "Exaltación de la Cruz", "state": "", "lat": "-34.31228650", "lng": "-59.31295630"}, {"name": "Ezeiza", "state": "", "lat": "-34.87357520", "lng": "-58.73505670"}, {"name": "Florencio Varela", "state": "", "lat": "-34.88873210", "lng": "-58.42115210"}, {"name": "Florentino Ameghino", "state": "", "lat": "-34.88624610", "lng": "-62.70302560"}, {"name": "General Alvarado", "state": "", "lat": "-38.19975330", "lng": "-58.38977980"}, {"name": "General Alvear", "state": "", "lat": "-36.03836820", "lng": "-60.76716020"}, {"name": "General Arenales", "state": "", "lat": "-34.23810350", "lng": "-61.61258250"}, {"name": "General Belgrano", "state": "", "lat": "-35.84190100", "lng": "-59.04535800"}, {"name": "General Guido", "state": "", "lat": "-36.67376360", "lng": "-58.63303620"}, {"name": "General La Madrid", "state": "", "lat": "-37.39889560", "lng": "-61.97377640"}, {"name": "General Las Heras", "state": "", "lat": "-34.90931560", "lng": "-59.32777060"}, {"name": "General Lavalle", "state": "", "lat": "-36.67005230", "lng": "-57.67282310"}, {"name": "General Madariaga", "state": "", "lat": "-37.15579700", "lng": "-57.90662040"}, {"name": "General Paz", "state": "", "lat": "-35.47363710", "lng": "-58.69690130"}, {"name": "General Pinto", "state": "", "lat": "-34.68311120", "lng": "-62.34048360"}], "AM": [{"name": "Agarakavan", "state": "", "lat": "40.33069000", "lng": "44.07233000"}, {"name": "Aparan", "state": "", "lat": "40.59323000", "lng": "44.35890000"}, {"name": "Aragats", "state": "", "lat": "40.48889000", "lng": "44.35290000"}, {"name": "Arteni", "state": "", "lat": "40.29730000", "lng": "43.76672000"}, {"name": "Ashnak", "state": "", "lat": "40.33069000", "lng": "43.91669000"}, {"name": "Ashtarak", "state": "", "lat": "40.29910000", "lng": "44.36204000"}, {"name": "Byurakan", "state": "", "lat": "40.33894000", "lng": "44.27275000"}, {"name": "Hnaberd", "state": "", "lat": "40.63721000", "lng": "44.14058000"}, {"name": "Karbi", "state": "", "lat": "40.33069000", "lng": "44.37793000"}, {"name": "Kasakh", "state": "", "lat": "40.53697000", "lng": "44.41046000"}, {"name": "Kosh", "state": "", "lat": "40.30011000", "lng": "44.16107000"}, {"name": "Nor Yerznka", "state": "", "lat": "40.30011000", "lng": "44.38892000"}, {"name": "Oshakan", "state": "", "lat": "40.26392000", "lng": "44.31671000"}, {"name": "Sasunik", "state": "", "lat": "40.25012000", "lng": "44.34448000"}, {"name": "Shenavan", "state": "", "lat": "40.48328000", "lng": "44.38348000"}, {"name": "T’alin", "state": "", "lat": "40.39172000", "lng": "43.87793000"}, {"name": "Tsaghkahovit", "state": "", "lat": "40.63428000", "lng": "44.22241000"}, {"name": "Ushi", "state": "", "lat": "40.34729000", "lng": "44.37512000"}, {"name": "Voskevaz", "state": "", "lat": "40.27508000", "lng": "44.30011000"}, {"name": "Zovuni", "state": "", "lat": "40.51111000", "lng": "44.43890000"}, {"name": "Abovyan", "state": "", "lat": "40.04851000", "lng": "44.54742000"}, {"name": "Aralez", "state": "", "lat": "39.90008000", "lng": "44.65570000"}, {"name": "Ararat", "state": "", "lat": "39.83069000", "lng": "44.70569000"}, {"name": "Arevabuyr", "state": "", "lat": "40.03607000", "lng": "44.46948000"}, {"name": "Arevshat", "state": "", "lat": "40.03963000", "lng": "44.54179000"}, {"name": "Armash", "state": "", "lat": "39.76672000", "lng": "44.81110000"}, {"name": "Artashat", "state": "", "lat": "39.96144000", "lng": "44.54447000"}, {"name": "Avshar", "state": "", "lat": "39.85553000", "lng": "44.65832000"}, {"name": "Aygavan", "state": "", "lat": "39.87327000", "lng": "44.66984000"}, {"name": "Aygepat", "state": "", "lat": "39.95845000", "lng": "44.59981000"}, {"name": "Aygestan", "state": "", "lat": "40.00293000", "lng": "44.55829000"}, {"name": "Aygezard", "state": "", "lat": "39.95436000", "lng": "44.60229000"}, {"name": "Bardzrashen", "state": "", "lat": "40.08533000", "lng": "44.57957000"}, {"name": "Berk’anush", "state": "", "lat": "39.97790000", "lng": "44.51672000"}, {"name": "Burastan", "state": "", "lat": "39.99157000", "lng": "44.49681000"}, {"name": "Byuravan", "state": "", "lat": "40.01604000", "lng": "44.51889000"}, {"name": "Dalar", "state": "", "lat": "39.97653000", "lng": "44.52649000"}, {"name": "Darakert", "state": "", "lat": "40.10553000", "lng": "44.41388000"}, {"name": "Dashtavan", "state": "", "lat": "40.10010000", "lng": "44.39172000"}, {"name": "Dimitrov", "state": "", "lat": "40.00848000", "lng": "44.49170000"}, {"name": "Dvin", "state": "", "lat": "40.01984000", "lng": "44.58376000"}, {"name": "Getazat", "state": "", "lat": "40.03844000", "lng": "44.56369000"}, {"name": "Ghukasavan", "state": "", "lat": "40.12793000", "lng": "44.41669000"}, {"name": "Goravan", "state": "", "lat": "39.90832000", "lng": "44.73328000"}, {"name": "Hayanist", "state": "", "lat": "40.12231000", "lng": "44.37793000"}, {"name": "Hovtashat", "state": "", "lat": "40.09729000", "lng": "44.34448000"}, {"name": "Hovtashen", "state": "", "lat": "40.02508000", "lng": "44.45007000"}, {"name": "Jrahovit", "state": "", "lat": "40.04730000", "lng": "44.47510000"}, {"name": "Lusarrat", "state": "", "lat": "39.87403000", "lng": "44.58678000"}, {"name": "Marmarashen", "state": "", "lat": "40.05829000", "lng": "44.47229000"}, {"name": "Masis", "state": "", "lat": "40.06542000", "lng": "44.41618000"}, {"name": "Mrganush", "state": "", "lat": "40.02857000", "lng": "44.55831000"}, {"name": "Mrgavan", "state": "", "lat": "39.97251000", "lng": "44.53565000"}, {"name": "Mrgavet", "state": "", "lat": "40.02789000", "lng": "44.48328000"}, {"name": "Nizami", "state": "", "lat": "40.09168000", "lng": "44.40570000"}, {"name": "Norabats’", "state": "", "lat": "40.10553000", "lng": "44.43329000"}, {"name": "Noramarg", "state": "", "lat": "40.02228000", "lng": "44.42511000"}, {"name": "Norashen", "state": "", "lat": "40.00130000", "lng": "44.59296000"}, {"name": "Noyakert", "state": "", "lat": "39.83069000", "lng": "44.66949000"}, {"name": "Nshavan", "state": "", "lat": "40.02787000", "lng": "44.52565000"}, {"name": "Sayat’-Nova", "state": "", "lat": "40.07507000", "lng": "44.40008000"}, {"name": "Shahumyan", "state": "", "lat": "39.94171000", "lng": "44.57233000"}, {"name": "Sis", "state": "", "lat": "40.05829000", "lng": "44.38892000"}, {"name": "Sisavan", "state": "", "lat": "39.90802000", "lng": "44.66721000"}, {"name": "Surenavan", "state": "", "lat": "39.79449000", "lng": "44.77508000"}, {"name": "Vedi", "state": "", "lat": "39.91388000", "lng": "44.72510000"}, {"name": "Verin Artashat", "state": "", "lat": "39.99731000", "lng": "44.58893000"}, {"name": "Verin Dvin", "state": "", "lat": "40.02434000", "lng": "44.59038000"}, {"name": "Vosketap’", "state": "", "lat": "39.88114000", "lng": "44.64917000"}, {"name": "Vostan", "state": "", "lat": "39.96515000", "lng": "44.55937000"}, {"name": "Yeghegnavan", "state": "", "lat": "39.83893000", "lng": "44.61951000"}, {"name": "Zangakatun", "state": "", "lat": "39.82233000", "lng": "45.04169000"}, {"name": "Zorak", "state": "", "lat": "40.09168000", "lng": "44.39447000"}, {"name": "Aghavnatun", "state": "", "lat": "40.23330000", "lng": "44.25295000"}, {"name": "Aknalich", "state": "", "lat": "40.14728000", "lng": "44.16669000"}, {"name": "Aknashen", "state": "", "lat": "40.09551000", "lng": "44.28604000"}, {"name": "Alashkert", "state": "", "lat": "40.10712000", "lng": "44.05108000"}, {"name": "Apaga", "state": "", "lat": "40.09729000", "lng": "44.25293000"}, {"name": "Arak’s", "state": "", "lat": "40.05548000", "lng": "44.30292000"}, {"name": "Arazap’", "state": "", "lat": "40.04169000", "lng": "44.14728000"}, {"name": "Arbat’", "state": "", "lat": "40.13892000", "lng": "44.40289000"}, {"name": "Arevashat", "state": "", "lat": "40.14447000", "lng": "44.37512000"}, {"name": "Arevik", "state": "", "lat": "40.10010000", "lng": "44.09448000"}, {"name": "Argavand", "state": "", "lat": "40.06110000", "lng": "44.09448000"}, {"name": "Armavir", "state": "", "lat": "40.15446000", "lng": "44.03815000"}, {"name": "Arshaluys", "state": "", "lat": "40.16949000", "lng": "44.21393000"}, {"name": "Artimet", "state": "", "lat": "40.15008000", "lng": "44.26672000"}, {"name": "Aygek", "state": "", "lat": "40.18890000", "lng": "44.38611000"}, {"name": "Aygeshat", "state": "", "lat": "40.07507000", "lng": "44.06110000"}, {"name": "Baghramyan", "state": "", "lat": "40.19452000", "lng": "44.36951000"}, {"name": "Bambakashat", "state": "", "lat": "40.10828000", "lng": "44.01947000"}, {"name": "Dalarik", "state": "", "lat": "40.22790000", "lng": "43.87793000"}, {"name": "Doghs", "state": "", "lat": "40.22229000", "lng": "44.27228000"}, {"name": "Gay", "state": "", "lat": "40.08444000", "lng": "44.30528000"}, {"name": "Geghakert", "state": "", "lat": "40.18516000", "lng": "44.24331000"}, {"name": "Geghanist", "state": "", "lat": "40.14587000", "lng": "44.43048000"}, {"name": "Getashen", "state": "", "lat": "40.04449000", "lng": "43.94171000"}, {"name": "Gmbet’", "state": "", "lat": "40.22369000", "lng": "44.25409000"}, {"name": "Griboyedov", "state": "", "lat": "40.11307000", "lng": "44.27169000"}, {"name": "Haykashen", "state": "", "lat": "40.07233000", "lng": "44.30829000"}], "AW": [{"name": "Alto Vista", "state": "", "lat": "12.57050000", "lng": "-70.01912000"}, {"name": "Moco", "state": "", "lat": "12.55134000", "lng": "-70.00843000"}, {"name": "Noord", "state": "", "lat": "12.56596000", "lng": "-70.03198000"}, {"name": "Oranjestad", "state": "", "lat": "12.52398000", "lng": "-70.02703000"}, {"name": "Palm Beach", "state": "", "lat": "12.56847000", "lng": "-70.03887000"}, {"name": "Paradera", "state": "", "lat": "12.53510000", "lng": "-70.00688000"}, {"name": "Pos Chiquito", "state": "", "lat": "12.46497000", "lng": "-69.96233000"}, {"name": "San Nicolas", "state": "", "lat": "12.43624000", "lng": "-69.90713000"}, {"name": "Santa Cruz", "state": "", "lat": "12.50953000", "lng": "-69.98094000"}, {"name": "Savaneta", "state": "", "lat": "12.45026000", "lng": "-69.93811000"}, {"name": "Tanki Leendert", "state": "", "lat": "12.53914000", "lng": "-70.02004000"}, {"name": "Washington", "state": "", "lat": "12.55837000", "lng": "-70.03816000"}], "AU": [{"name": "Acton", "state": "", "lat": "-35.27767000", "lng": "149.11829000"}, {"name": "Ainslie", "state": "", "lat": "-35.26255000", "lng": "149.14370000"}, {"name": "Amaroo", "state": "", "lat": "-35.16959000", "lng": "149.12802000"}, {"name": "Aranda", "state": "", "lat": "-35.25817000", "lng": "149.08040000"}, {"name": "Banks", "state": "", "lat": "-35.47194000", "lng": "149.09965000"}, {"name": "Barton", "state": "", "lat": "-35.30489000", "lng": "149.14121000"}, {"name": "Belconnen", "state": "", "lat": "-35.23798000", "lng": "149.06627000"}, {"name": "Bonner", "state": "", "lat": "-35.16225000", "lng": "149.13855000"}, {"name": "Bonython", "state": "", "lat": "-35.43326000", "lng": "149.07822000"}, {"name": "Braddon", "state": "", "lat": "-35.27078000", "lng": "149.13569000"}, {"name": "Bruce", "state": "", "lat": "-35.24405000", "lng": "149.09083000"}, {"name": "Calwell", "state": "", "lat": "-35.44042000", "lng": "149.10707000"}, {"name": "Campbell", "state": "", "lat": "-35.28907000", "lng": "149.15382000"}, {"name": "Canberra", "state": "", "lat": "-35.28346000", "lng": "149.12807000"}, {"name": "Casey", "state": "", "lat": "-35.16701000", "lng": "149.09470000"}, {"name": "Chapman", "state": "", "lat": "-35.35621000", "lng": "149.03742000"}, {"name": "Charnwood", "state": "", "lat": "-35.20019000", "lng": "149.03412000"}, {"name": "Chifley", "state": "", "lat": "-35.35340000", "lng": "149.07684000"}, {"name": "Chisholm", "state": "", "lat": "-35.41249000", "lng": "149.12825000"}, {"name": "Conder", "state": "", "lat": "-35.45926000", "lng": "149.10422000"}, {"name": "Cook", "state": "", "lat": "-35.26014000", "lng": "149.06566000"}, {"name": "Coombs", "state": "", "lat": "-35.31634000", "lng": "149.03941000"}, {"name": "Crace", "state": "", "lat": "-35.20282000", "lng": "149.10736000"}, {"name": "Curtin", "state": "", "lat": "-35.32464000", "lng": "149.07763000"}, {"name": "Deakin", "state": "", "lat": "-35.31927000", "lng": "149.10308000"}, {"name": "Dickson", "state": "", "lat": "-35.25082000", "lng": "149.13932000"}, {"name": "Downer", "state": "", "lat": "-35.24457000", "lng": "149.14468000"}, {"name": "Duffy", "state": "", "lat": "-35.33459000", "lng": "149.03188000"}, {"name": "Dunlop", "state": "", "lat": "-35.19402000", "lng": "149.01984000"}, {"name": "Evatt", "state": "", "lat": "-35.21191000", "lng": "149.06891000"}, {"name": "Fadden", "state": "", "lat": "-35.40500000", "lng": "149.11662000"}, {"name": "Farrer", "state": "", "lat": "-35.37673000", "lng": "149.10500000"}, {"name": "Fisher", "state": "", "lat": "-35.36126000", "lng": "149.05704000"}, {"name": "Florey", "state": "", "lat": "-35.22588000", "lng": "149.05000000"}, {"name": "Flynn", "state": "", "lat": "-35.20593000", "lng": "149.04389000"}, {"name": "Forde", "state": "", "lat": "-35.16823000", "lng": "149.14607000"}, {"name": "Forrest", "state": "", "lat": "-35.31499000", "lng": "149.12859000"}, {"name": "Franklin", "state": "", "lat": "-35.19946000", "lng": "149.14329000"}, {"name": "Fraser", "state": "", "lat": "-35.19170000", "lng": "149.04534000"}, {"name": "Garran", "state": "", "lat": "-35.34206000", "lng": "149.10846000"}, {"name": "Gilmore", "state": "", "lat": "-35.41994000", "lng": "149.13481000"}, {"name": "Giralang", "state": "", "lat": "-35.21093000", "lng": "149.09600000"}, {"name": "Gordon", "state": "", "lat": "-35.45676000", "lng": "149.08498000"}, {"name": "Gowrie", "state": "", "lat": "-35.41187000", "lng": "149.10903000"}, {"name": "Greenway", "state": "", "lat": "-35.41829000", "lng": "149.06658000"}, {"name": "Griffith", "state": "", "lat": "-35.32533000", "lng": "149.13714000"}, {"name": "Gungahlin", "state": "", "lat": "-35.18674000", "lng": "149.13619000"}, {"name": "Hackett", "state": "", "lat": "-35.24948000", "lng": "149.16352000"}, {"name": "Harrison", "state": "", "lat": "-35.19906000", "lng": "149.15631000"}, {"name": "Hawker", "state": "", "lat": "-35.24707000", "lng": "149.03666000"}, {"name": "Higgins", "state": "", "lat": "-35.23242000", "lng": "149.02720000"}, {"name": "Holder", "state": "", "lat": "-35.33439000", "lng": "149.04614000"}, {"name": "Holt", "state": "", "lat": "-35.22441000", "lng": "149.01188000"}, {"name": "Hughes", "state": "", "lat": "-35.33269000", "lng": "149.09491000"}, {"name": "Isaacs", "state": "", "lat": "-35.36862000", "lng": "149.11555000"}, {"name": "Isabella Plains", "state": "", "lat": "-35.42829000", "lng": "149.08795000"}, {"name": "Kaleen", "state": "", "lat": "-35.21814000", "lng": "149.10516000"}, {"name": "Kambah", "state": "", "lat": "-35.38624000", "lng": "149.05804000"}, {"name": "Kingston", "state": "", "lat": "-35.31525000", "lng": "149.14658000"}, {"name": "Latham", "state": "", "lat": "-35.21652000", "lng": "149.03144000"}, {"name": "Lyneham", "state": "", "lat": "-35.23980000", "lng": "149.13074000"}, {"name": "Lyons", "state": "", "lat": "-35.34060000", "lng": "149.07396000"}, {"name": "Macarthur", "state": "", "lat": "-35.40885000", "lng": "149.12696000"}, {"name": "Macgregor", "state": "", "lat": "-35.20980000", "lng": "149.01101000"}, {"name": "Macquarie", "state": "", "lat": "-35.25126000", "lng": "149.06363000"}, {"name": "Mawson", "state": "", "lat": "-35.36340000", "lng": "149.09863000"}, {"name": "McKellar", "state": "", "lat": "-35.21752000", "lng": "149.07704000"}, {"name": "Melba", "state": "", "lat": "-35.21016000", "lng": "149.05405000"}, {"name": "Monash", "state": "", "lat": "-35.41577000", "lng": "149.09063000"}, {"name": "Narrabundah", "state": "", "lat": "-35.33570000", "lng": "149.14924000"}, {"name": "Ngunnawal", "state": "", "lat": "-35.17280000", "lng": "149.11147000"}, {"name": "Nicholls", "state": "", "lat": "-35.18733000", "lng": "149.09648000"}, {"name": "O'Connor", "state": "", "lat": "-35.25645000", "lng": "149.11248000"}, {"name": "Oxley", "state": "", "lat": "-35.40952000", "lng": "149.07860000"}, {"name": "Page", "state": "", "lat": "-35.23864000", "lng": "149.04988000"}, {"name": "Palmerston", "state": "", "lat": "-35.19447000", "lng": "149.11940000"}, {"name": "Pearce", "state": "", "lat": "-35.36222000", "lng": "149.08338000"}, {"name": "Phillip", "state": "", "lat": "-35.35035000", "lng": "149.09151000"}, {"name": "Red Hill", "state": "", "lat": "-35.32624000", "lng": "149.11906000"}, {"name": "Reid", "state": "", "lat": "-35.28578000", "lng": "149.13905000"}, {"name": "Richardson", "state": "", "lat": "-35.42787000", "lng": "149.11377000"}, {"name": "Rivett", "state": "", "lat": "-35.34709000", "lng": "149.03790000"}, {"name": "Scullin", "state": "", "lat": "-35.23462000", "lng": "149.03900000"}, {"name": "Spence", "state": "", "lat": "-35.19873000", "lng": "149.06438000"}, {"name": "Stirling", "state": "", "lat": "-35.34969000", "lng": "149.04930000"}, {"name": "Theodore", "state": "", "lat": "-35.44962000", "lng": "149.11971000"}, {"name": "Torrens", "state": "", "lat": "-35.37203000", "lng": "149.08773000"}, {"name": "Turner", "state": "", "lat": "-35.26881000", "lng": "149.12465000"}, {"name": "Wanniassa", "state": "", "lat": "-35.39783000", "lng": "149.09086000"}, {"name": "Waramanga", "state": "", "lat": "-35.35297000", "lng": "149.06214000"}, {"name": "Watson", "state": "", "lat": "-35.23815000", "lng": "149.15271000"}, {"name": "Weetangera", "state": "", "lat": "-35.25000000", "lng": "149.05000000"}, {"name": "Weston", "state": "", "lat": "-35.33582000", "lng": "149.05929000"}, {"name": "Wright", "state": "", "lat": "-35.32239000", "lng": "149.03456000"}, {"name": "Yarralumla", "state": "", "lat": "-35.29980000", "lng": "149.10585000"}, {"name": "Abbotsbury", "state": "", "lat": "-33.87010000", "lng": "150.86119000"}, {"name": "Abbotsford", "state": "", "lat": "-33.84889000", "lng": "151.12801000"}, {"name": "Abercrombie", "state": "", "lat": "-33.38867000", "lng": "149.54580000"}, {"name": "Aberdare", "state": "", "lat": "-32.84112000", "lng": "151.38168000"}, {"name": "Aberdeen", "state": "", "lat": "-32.16588000", "lng": "150.89003000"}], "AT": [{"name": "Andau", "state": "", "lat": "47.77441000", "lng": "17.03293000"}, {"name": "Antau", "state": "", "lat": "47.77377000", "lng": "16.47984000"}, {"name": "Apetlon", "state": "", "lat": "47.74394000", "lng": "16.83020000"}, {"name": "Bad Sauerbrunn", "state": "", "lat": "47.77439000", "lng": "16.32841000"}, {"name": "Bad Tatzmannsdorf", "state": "", "lat": "47.33126000", "lng": "16.23067000"}, {"name": "Badersdorf", "state": "", "lat": "47.20000000", "lng": "16.36667000"}, {"name": "Bernstein", "state": "", "lat": "47.40000000", "lng": "16.25000000"}, {"name": "Bocksdorf", "state": "", "lat": "47.14256000", "lng": "16.17784000"}, {"name": "Breitenbrunn", "state": "", "lat": "47.94452000", "lng": "16.73149000"}, {"name": "Bruckneudorf", "state": "", "lat": "48.01667000", "lng": "16.78333000"}, {"name": "Deutsch Jahrndorf", "state": "", "lat": "48.01667000", "lng": "17.10000000"}, {"name": "Deutsch Kaltenbrunn", "state": "", "lat": "47.09455000", "lng": "16.13145000"}, {"name": "Deutschkreutz", "state": "", "lat": "47.60000000", "lng": "16.63333000"}, {"name": "Donnerskirchen", "state": "", "lat": "47.89425000", "lng": "16.64635000"}, {"name": "Drassburg", "state": "", "lat": "47.74645000", "lng": "16.48679000"}, {"name": "Eberau", "state": "", "lat": "47.10764000", "lng": "16.46044000"}, {"name": "Edelstal", "state": "", "lat": "48.10000000", "lng": "16.98333000"}, {"name": "Eisenstadt", "state": "", "lat": "47.84565000", "lng": "16.52327000"}, {"name": "Eisenstadt Stadt", "state": "", "lat": "47.84450000", "lng": "16.52575000"}, {"name": "Eisenstadt-Umgebung", "state": "", "lat": "47.83333000", "lng": "16.58333000"}, {"name": "Eltendorf", "state": "", "lat": "47.00870000", "lng": "16.20239000"}, {"name": "Forchtenstein", "state": "", "lat": "47.71161000", "lng": "16.34525000"}, {"name": "Frauenkirchen", "state": "", "lat": "47.83678000", "lng": "16.92581000"}, {"name": "Gattendorf", "state": "", "lat": "48.01667000", "lng": "16.98333000"}, {"name": "Gols", "state": "", "lat": "47.89689000", "lng": "16.91113000"}, {"name": "Grafenschachen", "state": "", "lat": "47.36667000", "lng": "16.06667000"}, {"name": "Grosshöflein", "state": "", "lat": "47.83586000", "lng": "16.48035000"}, {"name": "Grosspetersdorf", "state": "", "lat": "47.23895000", "lng": "16.31783000"}, {"name": "Güssing", "state": "", "lat": "47.05936000", "lng": "16.32431000"}, {"name": "Güttenbach", "state": "", "lat": "47.15710000", "lng": "16.29230000"}, {"name": "Hackerberg", "state": "", "lat": "47.20000000", "lng": "16.11667000"}, {"name": "Halbturn", "state": "", "lat": "47.87019000", "lng": "16.97542000"}, {"name": "Hannersdorf", "state": "", "lat": "47.22895000", "lng": "16.38250000"}, {"name": "Heiligenbrunn", "state": "", "lat": "47.02705000", "lng": "16.41688000"}, {"name": "Heiligenkreuz im Lafnitztal", "state": "", "lat": "46.98917000", "lng": "16.26083000"}, {"name": "Heugraben", "state": "", "lat": "47.11783000", "lng": "16.19041000"}, {"name": "Hirm", "state": "", "lat": "47.78652000", "lng": "16.45460000"}, {"name": "Horitschon", "state": "", "lat": "47.58729000", "lng": "16.54696000"}, {"name": "Hornstein", "state": "", "lat": "47.88049000", "lng": "16.44447000"}, {"name": "Illmitz", "state": "", "lat": "47.76148000", "lng": "16.80024000"}, {"name": "Inzenhof", "state": "", "lat": "47.01667000", "lng": "16.31667000"}, {"name": "Jabing", "state": "", "lat": "47.23880000", "lng": "16.27659000"}, {"name": "Jennersdorf", "state": "", "lat": "46.93848000", "lng": "16.14158000"}, {"name": "Jois", "state": "", "lat": "47.96165000", "lng": "16.79604000"}, {"name": "Kaisersdorf", "state": "", "lat": "47.53741000", "lng": "16.39198000"}, {"name": "Kemeten", "state": "", "lat": "47.24859000", "lng": "16.15213000"}, {"name": "Kittsee", "state": "", "lat": "48.09250000", "lng": "17.06389000"}, {"name": "Kleinhöflein im Burgenland", "state": "", "lat": "47.84151000", "lng": "16.50413000"}, {"name": "Kleinmürbisch", "state": "", "lat": "47.03299000", "lng": "16.32448000"}, {"name": "Klingenbach", "state": "", "lat": "47.75202000", "lng": "16.54069000"}, {"name": "Kobersdorf", "state": "", "lat": "47.59572000", "lng": "16.39173000"}, {"name": "Kohfidisch", "state": "", "lat": "47.17472000", "lng": "16.35701000"}, {"name": "Königsdorf", "state": "", "lat": "47.00000000", "lng": "16.16667000"}, {"name": "Krensdorf", "state": "", "lat": "47.78552000", "lng": "16.41495000"}, {"name": "Kukmirn", "state": "", "lat": "47.07544000", "lng": "16.21033000"}, {"name": "Lackenbach", "state": "", "lat": "47.59042000", "lng": "16.46533000"}, {"name": "Lackendorf", "state": "", "lat": "47.58996000", "lng": "16.50404000"}, {"name": "Leithaprodersdorf", "state": "", "lat": "47.93348000", "lng": "16.47915000"}, {"name": "Litzelsdorf", "state": "", "lat": "47.20826000", "lng": "16.17170000"}, {"name": "Lockenhaus", "state": "", "lat": "47.40753000", "lng": "16.41623000"}, {"name": "Loipersbach im Burgenland", "state": "", "lat": "47.69656000", "lng": "16.47919000"}, {"name": "Loretto", "state": "", "lat": "47.91559000", "lng": "16.51790000"}, {"name": "Lutzmannsburg", "state": "", "lat": "47.46373000", "lng": "16.63665000"}, {"name": "Mannersdorf an der Rabnitz", "state": "", "lat": "47.42815000", "lng": "16.52678000"}, {"name": "Mariasdorf", "state": "", "lat": "47.36580000", "lng": "16.23136000"}, {"name": "Markt Allhau", "state": "", "lat": "47.28333000", "lng": "16.08333000"}, {"name": "Markt Neuhodis", "state": "", "lat": "47.29565000", "lng": "16.39564000"}, {"name": "Markt Sankt Martin", "state": "", "lat": "47.56205000", "lng": "16.42508000"}, {"name": "Marz", "state": "", "lat": "47.71667000", "lng": "16.41667000"}, {"name": "Mattersburg", "state": "", "lat": "47.73333000", "lng": "16.40000000"}, {"name": "Mischendorf", "state": "", "lat": "47.19277000", "lng": "16.31444000"}, {"name": "Mitterpullendorf", "state": "", "lat": "47.49325000", "lng": "16.52129000"}, {"name": "Mogersdorf", "state": "", "lat": "46.94917000", "lng": "16.23222000"}, {"name": "Mönchhof", "state": "", "lat": "47.88020000", "lng": "16.94126000"}, {"name": "Mörbisch am See", "state": "", "lat": "47.75000000", "lng": "16.66667000"}, {"name": "Moschendorf", "state": "", "lat": "47.05843000", "lng": "16.47728000"}, {"name": "Mühlgraben", "state": "", "lat": "46.88972000", "lng": "16.04083000"}, {"name": "Müllendorf", "state": "", "lat": "47.83943000", "lng": "16.46258000"}, {"name": "Neckenmarkt", "state": "", "lat": "47.59964000", "lng": "16.54670000"}, {"name": "Neuberg im Burgenland", "state": "", "lat": "47.16894000", "lng": "16.26054000"}, {"name": "Neudörfl", "state": "", "lat": "47.79655000", "lng": "16.29770000"}, {"name": "Neufeld an der Leitha", "state": "", "lat": "47.86558000", "lng": "16.37856000"}, {"name": "Neuhaus am Klausenbach", "state": "", "lat": "46.86667000", "lng": "16.03333000"}, {"name": "Neusiedl am See", "state": "", "lat": "47.94901000", "lng": "16.84170000"}, {"name": "Neustift an der Lafnitz", "state": "", "lat": "47.36667000", "lng": "16.03333000"}, {"name": "Neustift bei Güssing", "state": "", "lat": "47.02474000", "lng": "16.26041000"}, {"name": "Neutal", "state": "", "lat": "47.54548000", "lng": "16.44619000"}, {"name": "Nickelsdorf", "state": "", "lat": "47.94056000", "lng": "17.06944000"}, {"name": "Nikitsch", "state": "", "lat": "47.53615000", "lng": "16.66017000"}, {"name": "Oberdorf im Burgenland", "state": "", "lat": "47.21667000", "lng": "16.21667000"}, {"name": "Oberloisdorf", "state": "", "lat": "47.44736000", "lng": "16.50764000"}, {"name": "Oberpullendorf", "state": "", "lat": "47.50352000", "lng": "16.50447000"}, {"name": "Oberschützen", "state": "", "lat": "47.35138000", "lng": "16.20732000"}, {"name": "Oberwart", "state": "", "lat": "47.28971000", "lng": "16.20595000"}, {"name": "Oggau", "state": "", "lat": "47.83333000", "lng": "16.66667000"}, {"name": "Olbendorf", "state": "", "lat": "47.18333000", "lng": "16.20000000"}, {"name": "Ollersdorf im Burgenland", "state": "", "lat": "47.18333000", "lng": "16.16667000"}, {"name": "Oslip", "state": "", "lat": "47.82906000", "lng": "16.61957000"}, {"name": "Pama", "state": "", "lat": "48.05000000", "lng": "17.03333000"}, {"name": "Pamhagen", "state": "", "lat": "47.70092000", "lng": "16.90779000"}], "AZ": [{"name": "Ceyranbatan", "state": "", "lat": "40.54194000", "lng": "49.66073000"}, {"name": "Digah", "state": "", "lat": "40.49257000", "lng": "49.87477000"}, {"name": "Gyuzdek", "state": "", "lat": "40.37444000", "lng": "49.68194000"}, {"name": "Khirdalan", "state": "", "lat": "40.44808000", "lng": "49.75502000"}, {"name": "Qobu", "state": "", "lat": "40.40472000", "lng": "49.71306000"}, {"name": "Saray", "state": "", "lat": "40.53299000", "lng": "49.71681000"}, {"name": "Ağdam", "state": "", "lat": "39.99096000", "lng": "46.92736000"}, {"name": "Ağdaş", "state": "", "lat": "40.64699000", "lng": "47.47380000"}, {"name": "Agdzhabedy", "state": "", "lat": "40.05015000", "lng": "47.45937000"}, {"name": "Avşar", "state": "", "lat": "39.97389000", "lng": "47.42389000"}, {"name": "Aghstafa", "state": "", "lat": "41.11889000", "lng": "45.45389000"}, {"name": "Saloğlu", "state": "", "lat": "41.27524000", "lng": "45.35293000"}, {"name": "Vurğun", "state": "", "lat": "41.09524000", "lng": "45.47111000"}, {"name": "Aghsu", "state": "", "lat": "40.57028000", "lng": "48.40087000"}, {"name": "Astara", "state": "", "lat": "38.45598000", "lng": "48.87498000"}, {"name": "Kizhaba", "state": "", "lat": "38.53461000", "lng": "48.80546000"}, {"name": "Amirdzhan", "state": "", "lat": "40.42639000", "lng": "49.98361000"}, {"name": "Badamdar", "state": "", "lat": "40.34024000", "lng": "49.80450000"}, {"name": "Bakıxanov", "state": "", "lat": "40.41894000", "lng": "49.96693000"}, {"name": "Baku", "state": "", "lat": "40.37767000", "lng": "49.89201000"}, {"name": "Balakhani", "state": "", "lat": "40.46344000", "lng": "49.91893000"}, {"name": "Bilajari", "state": "", "lat": "40.44440000", "lng": "49.80566000"}, {"name": "Bilajer", "state": "", "lat": "40.56441000", "lng": "50.04002000"}, {"name": "Binagadi", "state": "", "lat": "40.46602000", "lng": "49.82783000"}, {"name": "Biny Selo", "state": "", "lat": "40.45076000", "lng": "50.08686000"}, {"name": "Buzovna", "state": "", "lat": "40.51903000", "lng": "50.11438000"}, {"name": "Hövsan", "state": "", "lat": "40.37444000", "lng": "50.08528000"}, {"name": "Khodzhi-Gasan", "state": "", "lat": "40.41293000", "lng": "49.76904000"}, {"name": "Korgöz", "state": "", "lat": "40.30446000", "lng": "49.62360000"}, {"name": "Lökbatan", "state": "", "lat": "40.32560000", "lng": "49.73376000"}, {"name": "Mardakan", "state": "", "lat": "40.49182000", "lng": "50.14292000"}, {"name": "Maştağa", "state": "", "lat": "40.52983000", "lng": "50.00616000"}, {"name": "Nardaran", "state": "", "lat": "40.55611000", "lng": "50.00556000"}, {"name": "Nizami Rayonu", "state": "", "lat": "40.40970000", "lng": "49.91926000"}, {"name": "Pirallahı", "state": "", "lat": "40.47013000", "lng": "50.32476000"}, {"name": "Puta", "state": "", "lat": "40.29667000", "lng": "49.66028000"}, {"name": "Qala", "state": "", "lat": "40.44256000", "lng": "50.16759000"}, {"name": "Qaraçuxur", "state": "", "lat": "40.39667000", "lng": "49.97361000"}, {"name": "Qobustan", "state": "", "lat": "40.08238000", "lng": "49.41205000"}, {"name": "Ramana", "state": "", "lat": "40.44222000", "lng": "49.98056000"}, {"name": "Sabunçu", "state": "", "lat": "40.44250000", "lng": "49.94806000"}, {"name": "Sanqaçal", "state": "", "lat": "40.16991000", "lng": "49.46394000"}, {"name": "Türkan", "state": "", "lat": "40.36460000", "lng": "50.22075000"}, {"name": "Yeni Suraxanı", "state": "", "lat": "40.43026000", "lng": "50.03598000"}, {"name": "Zabrat", "state": "", "lat": "40.47746000", "lng": "49.94174000"}, {"name": "Zyrya", "state": "", "lat": "40.36613000", "lng": "50.29198000"}, {"name": "Belokany", "state": "", "lat": "41.72626000", "lng": "46.40478000"}, {"name": "Qabaqçöl", "state": "", "lat": "41.75259000", "lng": "46.27052000"}, {"name": "Barda", "state": "", "lat": "40.37577000", "lng": "47.12619000"}, {"name": "Samuxlu", "state": "", "lat": "40.50833000", "lng": "47.16917000"}, {"name": "Beylagan", "state": "", "lat": "39.77556000", "lng": "47.61861000"}, {"name": "Birinci Aşıqlı", "state": "", "lat": "39.81917000", "lng": "47.67944000"}, {"name": "Dünyamalılar", "state": "", "lat": "39.77278000", "lng": "47.75889000"}, {"name": "Orjonikidze", "state": "", "lat": "39.63571000", "lng": "47.71199000"}, {"name": "Yuxarı Aran", "state": "", "lat": "39.73361000", "lng": "47.65500000"}, {"name": "Pushkino", "state": "", "lat": "39.45833000", "lng": "48.54500000"}, {"name": "Verkhniy Dashkesan", "state": "", "lat": "40.49357000", "lng": "46.07175000"}, {"name": "Yukhary-Dashkesan", "state": "", "lat": "40.52393000", "lng": "46.08186000"}, {"name": "Fizuli", "state": "", "lat": "39.60094000", "lng": "47.14529000"}, {"name": "Horadiz", "state": "", "lat": "39.45015000", "lng": "47.33496000"}, {"name": "Ganja", "state": "", "lat": "40.68278000", "lng": "46.36056000"}, {"name": "Arıqdam", "state": "", "lat": "40.59313000", "lng": "45.79900000"}, {"name": "Arıqıran", "state": "", "lat": "40.53971000", "lng": "45.61414000"}, {"name": "Böyük Qaramurad", "state": "", "lat": "40.57626000", "lng": "45.63727000"}, {"name": "Kyadabek", "state": "", "lat": "40.57055000", "lng": "45.81229000"}, {"name": "Novosaratovka", "state": "", "lat": "40.59811000", "lng": "45.60079000"}, {"name": "Qobustan", "state": "", "lat": "40.53360000", "lng": "48.92819000"}, {"name": "Goranboy", "state": "", "lat": "40.61028000", "lng": "46.78972000"}, {"name": "Qızılhacılı", "state": "", "lat": "40.57362000", "lng": "46.84900000"}, {"name": "Geoktschai", "state": "", "lat": "40.65055000", "lng": "47.74219000"}, {"name": "Yelenendorf", "state": "", "lat": "40.58584000", "lng": "46.31890000"}, {"name": "Hacıqabul", "state": "", "lat": "40.03874000", "lng": "48.94286000"}, {"name": "Mughan", "state": "", "lat": "40.09902000", "lng": "48.81886000"}, {"name": "Imishli", "state": "", "lat": "39.87095000", "lng": "48.05995000"}, {"name": "Basqal", "state": "", "lat": "40.75520000", "lng": "48.39104000"}, {"name": "İsmayıllı", "state": "", "lat": "40.78485000", "lng": "48.15141000"}, {"name": "Jebrail", "state": "", "lat": "39.39917000", "lng": "47.02835000"}, {"name": "Jalilabad", "state": "", "lat": "39.20963000", "lng": "48.49186000"}, {"name": "Prishibinskoye", "state": "", "lat": "39.11998000", "lng": "48.59383000"}, {"name": "Kerbakhiar", "state": "", "lat": "40.10984000", "lng": "46.04446000"}, {"name": "Vank", "state": "", "lat": "40.05275000", "lng": "46.54419000"}, {"name": "Xaçmaz", "state": "", "lat": "41.46426000", "lng": "48.80565000"}, {"name": "Xudat", "state": "", "lat": "41.63052000", "lng": "48.68161000"}, {"name": "Khankendi", "state": "", "lat": "39.82660000", "lng": "46.75560000"}, {"name": "Altıağac", "state": "", "lat": "40.85785000", "lng": "48.93540000"}, {"name": "Khyzy", "state": "", "lat": "40.90847000", "lng": "49.07481000"}, {"name": "Kilyazi", "state": "", "lat": "40.87392000", "lng": "49.34376000"}, {"name": "Şuraabad", "state": "", "lat": "40.81990000", "lng": "49.46774000"}, {"name": "Askyaran", "state": "", "lat": "39.93910000", "lng": "46.83161000"}, {"name": "Xocalı", "state": "", "lat": "39.91297000", "lng": "46.79028000"}, {"name": "Kyurdarmir", "state": "", "lat": "40.34257000", "lng": "48.15649000"}, {"name": "Laçın", "state": "", "lat": "39.59881000", "lng": "46.55045000"}, {"name": "Haftoni", "state": "", "lat": "38.76325000", "lng": "48.76223000"}, {"name": "Lankaran", "state": "", "lat": "38.75428000", "lng": "48.85062000"}, {"name": "Lerik", "state": "", "lat": "38.77388000", "lng": "48.41497000"}, {"name": "Hadrut", "state": "", "lat": "39.52003000", "lng": "47.03190000"}, {"name": "Novyy Karanlug", "state": "", "lat": "39.79496000", "lng": "47.11170000"}, {"name": "Qırmızı Bazar", "state": "", "lat": "39.67669000", "lng": "46.95123000"}, {"name": "Boradigah", "state": "", "lat": "38.93013000", "lng": "48.70920000"}, {"name": "Masally", "state": "", "lat": "39.03532000", "lng": "48.66540000"}], "BH": [{"name": "Jidd Ḩafş", "state": "", "lat": "26.21861000", "lng": "50.54778000"}, {"name": "Manama", "state": "", "lat": "26.22787000", "lng": "50.58565000"}, {"name": "Sitrah", "state": "", "lat": "26.15472000", "lng": "50.62056000"}, {"name": "Al Ḩadd", "state": "", "lat": "26.24556000", "lng": "50.65417000"}, {"name": "Al Muharraq", "state": "", "lat": "26.25722000", "lng": "50.61194000"}, {"name": "Madīnat Ḩamad", "state": "", "lat": "26.11528000", "lng": "50.50694000"}, {"name": "Ar Rifā‘", "state": "", "lat": "26.13000000", "lng": "50.55500000"}, {"name": "Dār Kulayb", "state": "", "lat": "26.06861000", "lng": "50.50389000"}, {"name": "Madīnat ‘Īsá", "state": "", "lat": "26.17361000", "lng": "50.54778000"}], "BD": [{"name": "Bagerhat", "state": "", "lat": "22.34880590", "lng": "89.07470250"}, {"name": "Bandarban", "state": "", "lat": "22.00000000", "lng": "92.33333000"}, {"name": "Barguna", "state": "", "lat": "22.17167870", "lng": "89.79740240"}, {"name": "Barisal", "state": "", "lat": "22.42035790", "lng": "89.78250340"}, {"name": "Bhola", "state": "", "lat": "22.32452480", "lng": "90.10568470"}, {"name": "Bogra", "state": "", "lat": "24.82966450", "lng": "89.02598570"}, {"name": "Brahmanbaria", "state": "", "lat": "23.98333000", "lng": "91.16667000"}, {"name": "Chandpur", "state": "", "lat": "23.25000000", "lng": "90.83333000"}, {"name": "Chapai Nawabganj", "state": "", "lat": "24.59988690", "lng": "88.28504660"}, {"name": "Chittagong", "state": "", "lat": "22.48750000", "lng": "91.96333000"}, {"name": "Chuadanga", "state": "", "lat": "23.60352730", "lng": "88.48732400"}, {"name": "Cox's Bazar", "state": "", "lat": "21.58389000", "lng": "92.01528000"}, {"name": "Comilla", "state": "", "lat": "23.44170000", "lng": "91.00987000"}, {"name": "Dhaka", "state": "", "lat": "23.78417980", "lng": "89.92859830"}, {"name": "Dinajpur", "state": "", "lat": "25.64261030", "lng": "88.18344620"}, {"name": "Faridpur", "state": "", "lat": "23.45115240", "lng": "89.52820380"}, {"name": "Feni", "state": "", "lat": "22.96667000", "lng": "91.31667000"}, {"name": "Gaibandha", "state": "", "lat": "25.34315570", "lng": "89.13978570"}, {"name": "Gazipur", "state": "", "lat": "24.10914520", "lng": "90.09596140"}, {"name": "Gopalganj", "state": "", "lat": "23.10660120", "lng": "89.57802710"}, {"name": "Habiganj", "state": "", "lat": "24.33481970", "lng": "90.74899010"}, {"name": "Jamalpur", "state": "", "lat": "25.00108250", "lng": "89.26050130"}, {"name": "Jessore", "state": "", "lat": "23.08473560", "lng": "88.87480080"}, {"name": "Jhalokati", "state": "", "lat": "22.56303520", "lng": "89.87191590"}, {"name": "Jhenaidah", "state": "", "lat": "23.49521270", "lng": "88.70694930"}, {"name": "Joypurhat", "state": "", "lat": "25.06567070", "lng": "88.76832650"}, {"name": "Khagrachhari", "state": "", "lat": "23.16667000", "lng": "91.90000000"}, {"name": "Khulna", "state": "", "lat": "22.35351390", "lng": "88.83407090"}, {"name": "Kishoreganj", "state": "", "lat": "24.33888030", "lng": "90.58499800"}, {"name": "Kurigram", "state": "", "lat": "25.80827220", "lng": "89.00915030"}, {"name": "Kushtia", "state": "", "lat": "23.94595240", "lng": "88.70179290"}, {"name": "Lakshmipur", "state": "", "lat": "22.91667000", "lng": "90.83333000"}, {"name": "Lalmonirhat", "state": "", "lat": "26.12442390", "lng": "88.91060900"}, {"name": "Madaripur", "state": "", "lat": "23.23455490", "lng": "89.81089030"}, {"name": "Magura", "state": "", "lat": "23.46557740", "lng": "89.11547300"}, {"name": "Manikganj", "state": "", "lat": "23.83174080", "lng": "89.64097890"}, {"name": "Meherpur", "state": "", "lat": "23.78972180", "lng": "88.39319490"}, {"name": "Moulvibazar", "state": "", "lat": "24.48617710", "lng": "91.28742410"}, {"name": "Munshiganj", "state": "", "lat": "23.52615230", "lng": "90.11590910"}, {"name": "Mymensingh", "state": "", "lat": "24.72309850", "lng": "89.78411730"}, {"name": "Naogaon", "state": "", "lat": "24.87425080", "lng": "88.43751910"}, {"name": "Narail", "state": "", "lat": "23.13175700", "lng": "89.26258440"}, {"name": "Narayanganj", "state": "", "lat": "23.74880130", "lng": "90.25638500"}, {"name": "Narsingdi", "state": "", "lat": "24.00966000", "lng": "90.44480420"}, {"name": "Natore", "state": "", "lat": "24.38021070", "lng": "88.76302520"}, {"name": "Netrokona", "state": "", "lat": "24.87204810", "lng": "90.52293810"}, {"name": "Nilphamari", "state": "", "lat": "26.02264250", "lng": "88.63412710"}, {"name": "Noakhali", "state": "", "lat": "22.75000000", "lng": "91.16667000"}, {"name": "Pabna", "state": "", "lat": "24.08126720", "lng": "89.03724420"}, {"name": "Panchagarh", "state": "", "lat": "26.32094460", "lng": "88.54711390"}, {"name": "Patuakhali", "state": "", "lat": "22.18709170", "lng": "89.71647060"}, {"name": "Pirojpur", "state": "", "lat": "22.50937910", "lng": "89.36434220"}, {"name": "Rajbari", "state": "", "lat": "23.73843000", "lng": "89.25547000"}, {"name": "Rajshahi", "state": "", "lat": "24.42073360", "lng": "88.29602140"}, {"name": "Rangamati", "state": "", "lat": "22.63333000", "lng": "92.20000000"}, {"name": "Rangpur", "state": "", "lat": "25.62390240", "lng": "88.90094980"}, {"name": "Satkhira", "state": "", "lat": "22.29898590", "lng": "88.47540870"}, {"name": "Shariatpur", "state": "", "lat": "23.23124340", "lng": "90.08293470"}, {"name": "Sherpur", "state": "", "lat": "25.09260380", "lng": "89.76352070"}, {"name": "Sirajganj", "state": "", "lat": "24.39876240", "lng": "88.87641810"}, {"name": "Sunamganj", "state": "", "lat": "24.88905540", "lng": "91.00248270"}, {"name": "Sylhet", "state": "", "lat": "24.89189110", "lng": "91.73554950"}, {"name": "Tangail", "state": "", "lat": "24.37630700", "lng": "89.35804610"}, {"name": "Thakurgaon", "state": "", "lat": "25.93648420", "lng": "88.03366640"}], "BB": [{"name": "Oistins", "state": "", "lat": "13.07067000", "lng": "-59.54637000"}, {"name": "Greenland", "state": "", "lat": "13.25808000", "lng": "-59.57763000"}, {"name": "Holetown", "state": "", "lat": "13.18672000", "lng": "-59.63808000"}, {"name": "Bathsheba", "state": "", "lat": "13.21133000", "lng": "-59.52596000"}, {"name": "Bridgetown", "state": "", "lat": "13.10732000", "lng": "-59.62021000"}, {"name": "Speightstown", "state": "", "lat": "13.25072000", "lng": "-59.64396000"}, {"name": "Crane", "state": "", "lat": "13.10487000", "lng": "-59.44861000"}], "BY": [{"name": "Antopal’", "state": "", "lat": "52.20380000", "lng": "24.78630000"}, {"name": "Asnyezhytsy", "state": "", "lat": "52.18910000", "lng": "26.12990000"}, {"name": "Baranovichi", "state": "", "lat": "53.13270000", "lng": "26.01390000"}, {"name": "Baranovichskiy Rayon", "state": "", "lat": "53.16667000", "lng": "25.83333000"}, {"name": "Brest", "state": "", "lat": "52.09755000", "lng": "23.68775000"}, {"name": "Brestski Rayon", "state": "", "lat": "52.00000000", "lng": "23.75000000"}, {"name": "Byaroza", "state": "", "lat": "52.53140000", "lng": "24.97860000"}, {"name": "Byarozawski Rayon", "state": "", "lat": "52.50000000", "lng": "25.00000000"}, {"name": "Byelaazyorsk", "state": "", "lat": "52.47310000", "lng": "25.17840000"}, {"name": "Charnawchytsy", "state": "", "lat": "52.21948000", "lng": "23.74043000"}, {"name": "Damachava", "state": "", "lat": "51.75000000", "lng": "23.60000000"}, {"name": "Davyd-Haradok", "state": "", "lat": "52.05660000", "lng": "27.21610000"}, {"name": "Drahichyn", "state": "", "lat": "52.18740000", "lng": "25.15970000"}, {"name": "Drahichynski Rayon", "state": "", "lat": "52.16667000", "lng": "25.00000000"}, {"name": "Hantsavichy", "state": "", "lat": "52.75800000", "lng": "26.43000000"}, {"name": "Hantsavitski Rayon", "state": "", "lat": "52.66667000", "lng": "26.50000000"}, {"name": "Haradzishcha", "state": "", "lat": "53.32470000", "lng": "26.01070000"}, {"name": "Horad Baranavichy", "state": "", "lat": "53.13333000", "lng": "26.03333000"}, {"name": "Horad Brest", "state": "", "lat": "52.10000000", "lng": "23.70000000"}, {"name": "Ivanava", "state": "", "lat": "52.14510000", "lng": "25.53650000"}, {"name": "Ivanawski Rayon", "state": "", "lat": "52.16667000", "lng": "25.58333000"}, {"name": "Ivatsevichy", "state": "", "lat": "52.70900000", "lng": "25.34010000"}, {"name": "Kamyanyets", "state": "", "lat": "52.40013000", "lng": "23.81000000"}, {"name": "Kamyanyetski Rayon", "state": "", "lat": "52.41667000", "lng": "23.66667000"}, {"name": "Kamyanyuki", "state": "", "lat": "52.55757000", "lng": "23.80525000"}, {"name": "Kobryn", "state": "", "lat": "52.21380000", "lng": "24.35640000"}, {"name": "Kosava", "state": "", "lat": "52.75830000", "lng": "25.15540000"}, {"name": "Lahishyn", "state": "", "lat": "52.33900000", "lng": "25.98670000"}, {"name": "Luninyets", "state": "", "lat": "52.24720000", "lng": "26.80470000"}, {"name": "Lyakhavichy", "state": "", "lat": "53.03880000", "lng": "26.26560000"}, {"name": "Malaryta", "state": "", "lat": "51.79050000", "lng": "24.07400000"}, {"name": "Mikashevichy", "state": "", "lat": "52.21730000", "lng": "27.47600000"}, {"name": "Motal’", "state": "", "lat": "52.31380000", "lng": "25.60720000"}, {"name": "Nyakhachava", "state": "", "lat": "52.64400000", "lng": "25.20270000"}, {"name": "Pinsk", "state": "", "lat": "52.12290000", "lng": "26.09510000"}, {"name": "Pruzhanski Rayon", "state": "", "lat": "52.66667000", "lng": "24.58333000"}, {"name": "Pruzhany", "state": "", "lat": "52.55600000", "lng": "24.45730000"}, {"name": "Ruzhany", "state": "", "lat": "52.86322000", "lng": "24.89357000"}, {"name": "Stolin", "state": "", "lat": "51.89115000", "lng": "26.84597000"}, {"name": "Stolinski Rayon", "state": "", "lat": "52.00000000", "lng": "27.00000000"}, {"name": "Tsyelyakhany", "state": "", "lat": "52.51750000", "lng": "25.84290000"}, {"name": "Vysokaye", "state": "", "lat": "52.37091000", "lng": "23.37083000"}, {"name": "Zhabinka", "state": "", "lat": "52.19840000", "lng": "24.01150000"}, {"name": "Zhabinkawski Rayon", "state": "", "lat": "52.16667000", "lng": "24.08333000"}, {"name": "Znamenka", "state": "", "lat": "51.88168000", "lng": "23.65545000"}, {"name": "Aktsyabrski", "state": "", "lat": "52.64400000", "lng": "28.88010000"}, {"name": "Brahin", "state": "", "lat": "51.78700000", "lng": "30.26770000"}, {"name": "Brahinski Rayon", "state": "", "lat": "51.66667000", "lng": "30.33333000"}, {"name": "Buda-Kashalyova", "state": "", "lat": "52.71790000", "lng": "30.57010000"}, {"name": "Chachersk", "state": "", "lat": "52.91640000", "lng": "30.91790000"}, {"name": "Chacherski Rayon", "state": "", "lat": "52.91667000", "lng": "31.08333000"}, {"name": "Dobrush", "state": "", "lat": "52.40890000", "lng": "31.32370000"}, {"name": "Dowsk", "state": "", "lat": "53.15710000", "lng": "30.46010000"}, {"name": "Homyel'", "state": "", "lat": "52.43450000", "lng": "30.97540000"}, {"name": "Homyel’ski Rayon", "state": "", "lat": "52.33333000", "lng": "31.00000000"}, {"name": "Kalinkavichy", "state": "", "lat": "52.13230000", "lng": "29.32570000"}, {"name": "Karanyowka", "state": "", "lat": "52.35060000", "lng": "31.11210000"}, {"name": "Karma", "state": "", "lat": "53.13010000", "lng": "30.80160000"}, {"name": "Kastsyukowka", "state": "", "lat": "52.53870000", "lng": "30.91730000"}, {"name": "Khal’ch", "state": "", "lat": "52.56430000", "lng": "31.13640000"}, {"name": "Khoyniki", "state": "", "lat": "51.89110000", "lng": "29.95520000"}, {"name": "Loyew", "state": "", "lat": "51.94580000", "lng": "30.79530000"}, {"name": "Lyel’chytski Rayon", "state": "", "lat": "51.83333000", "lng": "28.25000000"}, {"name": "Lyel’chytsy", "state": "", "lat": "51.78620000", "lng": "28.32880000"}, {"name": "Mazyr", "state": "", "lat": "52.04950000", "lng": "29.24560000"}, {"name": "Mazyrski Rayon", "state": "", "lat": "52.00000000", "lng": "29.00000000"}, {"name": "Narowlya", "state": "", "lat": "51.79610000", "lng": "29.50040000"}, {"name": "Novaya Huta", "state": "", "lat": "52.10320000", "lng": "30.98370000"}, {"name": "Parychy", "state": "", "lat": "52.80420000", "lng": "29.41760000"}, {"name": "Peramoga", "state": "", "lat": "52.39730000", "lng": "31.07100000"}, {"name": "Pyetrykaw", "state": "", "lat": "52.12890000", "lng": "28.49210000"}, {"name": "Rahachow", "state": "", "lat": "53.09340000", "lng": "30.04950000"}, {"name": "Rahachowski Rayon", "state": "", "lat": "53.16667000", "lng": "30.16667000"}, {"name": "Rechytsa", "state": "", "lat": "52.36170000", "lng": "30.39160000"}, {"name": "Sasnovy Bor", "state": "", "lat": "52.51940000", "lng": "29.59880000"}, {"name": "Svyetlahorsk", "state": "", "lat": "52.63290000", "lng": "29.73890000"}, {"name": "Turaw", "state": "", "lat": "52.06830000", "lng": "27.73500000"}, {"name": "Vasilyevichy", "state": "", "lat": "52.25120000", "lng": "29.82880000"}, {"name": "Vyetka", "state": "", "lat": "52.55910000", "lng": "31.17940000"}, {"name": "Vyetkawski Rayon", "state": "", "lat": "52.66667000", "lng": "31.25000000"}, {"name": "Yel’sk", "state": "", "lat": "51.81410000", "lng": "29.15220000"}, {"name": "Zhlobin", "state": "", "lat": "52.89260000", "lng": "30.02400000"}, {"name": "Zhlobinski Rayon", "state": "", "lat": "52.75000000", "lng": "29.83333000"}, {"name": "Zhytkavichy", "state": "", "lat": "52.21680000", "lng": "27.85610000"}, {"name": "Ashmyanski Rayon", "state": "", "lat": "54.41667000", "lng": "25.91667000"}, {"name": "Ashmyany", "state": "", "lat": "54.42100000", "lng": "25.93600000"}, {"name": "Astravyets", "state": "", "lat": "54.61378000", "lng": "25.95537000"}, {"name": "Astravyetski Rayon", "state": "", "lat": "54.66667000", "lng": "26.00000000"}, {"name": "Baruny", "state": "", "lat": "54.31710000", "lng": "26.13760000"}, {"name": "Byarozawka", "state": "", "lat": "53.72406000", "lng": "25.49709000"}, {"name": "Dyatlovo", "state": "", "lat": "53.46310000", "lng": "25.40680000"}, {"name": "Grodnenskiy Rayon", "state": "", "lat": "53.66667000", "lng": "24.00000000"}, {"name": "Hal’shany", "state": "", "lat": "54.25850000", "lng": "26.01440000"}, {"name": "Horad Hrodna", "state": "", "lat": "53.68333000", "lng": "23.83333000"}, {"name": "Hrodna", "state": "", "lat": "53.68840000", "lng": "23.82580000"}, {"name": "Hyeranyony", "state": "", "lat": "54.11590000", "lng": "25.57730000"}, {"name": "Indura", "state": "", "lat": "53.46050000", "lng": "23.88230000"}, {"name": "Iwye", "state": "", "lat": "53.92990000", "lng": "25.77270000"}, {"name": "Karelichy", "state": "", "lat": "53.56480000", "lng": "26.14060000"}, {"name": "Karelitski Rayon", "state": "", "lat": "53.50000000", "lng": "26.25000000"}], "BE": [{"name": "Brussels", "state": "", "lat": "50.85045000", "lng": "4.34878000"}, {"name": "Aalst", "state": "", "lat": "50.93604000", "lng": "4.03550000"}, {"name": "Aalter", "state": "", "lat": "51.09017000", "lng": "3.44693000"}, {"name": "Aarschot", "state": "", "lat": "50.98715000", "lng": "4.83695000"}, {"name": "Aartselaar", "state": "", "lat": "51.13412000", "lng": "4.38678000"}, {"name": "Alken", "state": "", "lat": "50.87553000", "lng": "5.30558000"}, {"name": "Alveringem", "state": "", "lat": "51.01238000", "lng": "2.71117000"}, {"name": "Antwerpen", "state": "", "lat": "51.21989000", "lng": "4.40346000"}, {"name": "Anzegem", "state": "", "lat": "50.83700000", "lng": "3.47786000"}, {"name": "Ardooie", "state": "", "lat": "50.97570000", "lng": "3.19736000"}, {"name": "Arendonk", "state": "", "lat": "51.32267000", "lng": "5.08289000"}, {"name": "As", "state": "", "lat": "51.00755000", "lng": "5.58453000"}, {"name": "Asse", "state": "", "lat": "50.91011000", "lng": "4.19836000"}, {"name": "Assenede", "state": "", "lat": "51.22598000", "lng": "3.75085000"}, {"name": "Avelgem", "state": "", "lat": "50.77618000", "lng": "3.44502000"}, {"name": "Baarle-Hertog", "state": "", "lat": "51.40504000", "lng": "4.89226000"}, {"name": "Balen", "state": "", "lat": "51.16837000", "lng": "5.17027000"}, {"name": "Beernem", "state": "", "lat": "51.13981000", "lng": "3.33896000"}, {"name": "Beerse", "state": "", "lat": "51.31927000", "lng": "4.85304000"}, {"name": "Beersel", "state": "", "lat": "50.76589000", "lng": "4.30020000"}, {"name": "Begijnendijk", "state": "", "lat": "51.01942000", "lng": "4.78377000"}, {"name": "Bekkevoort", "state": "", "lat": "50.94074000", "lng": "4.96900000"}, {"name": "Beringen", "state": "", "lat": "51.04954000", "lng": "5.22606000"}, {"name": "Berlaar", "state": "", "lat": "51.11760000", "lng": "4.65835000"}, {"name": "Berlare", "state": "", "lat": "51.03333000", "lng": "4.00000000"}, {"name": "Bertem", "state": "", "lat": "50.86403000", "lng": "4.62918000"}, {"name": "Bever", "state": "", "lat": "50.91667000", "lng": "4.31667000"}, {"name": "Beveren", "state": "", "lat": "51.21187000", "lng": "4.25633000"}, {"name": "Bierbeek", "state": "", "lat": "50.82876000", "lng": "4.75949000"}, {"name": "Bilzen", "state": "", "lat": "50.87325000", "lng": "5.51840000"}, {"name": "Blankenberge", "state": "", "lat": "51.31306000", "lng": "3.13227000"}, {"name": "Bocholt", "state": "", "lat": "51.17337000", "lng": "5.57994000"}, {"name": "Boechout", "state": "", "lat": "51.15959000", "lng": "4.49195000"}, {"name": "Bonheiden", "state": "", "lat": "51.02261000", "lng": "4.54714000"}, {"name": "Boom", "state": "", "lat": "51.09242000", "lng": "4.37170000"}, {"name": "Boortmeerbeek", "state": "", "lat": "50.97929000", "lng": "4.57443000"}, {"name": "Borgloon", "state": "", "lat": "50.80505000", "lng": "5.34366000"}, {"name": "Bornem", "state": "", "lat": "51.09716000", "lng": "4.24364000"}, {"name": "Borsbeek", "state": "", "lat": "51.19661000", "lng": "4.48543000"}, {"name": "Boutersem", "state": "", "lat": "50.83511000", "lng": "4.83450000"}, {"name": "Brasschaat", "state": "", "lat": "51.29120000", "lng": "4.49182000"}, {"name": "Brecht", "state": "", "lat": "51.35024000", "lng": "4.63829000"}, {"name": "Bredene", "state": "", "lat": "51.23489000", "lng": "2.97559000"}, {"name": "Bree", "state": "", "lat": "51.14152000", "lng": "5.59690000"}, {"name": "Brugge", "state": "", "lat": "51.20892000", "lng": "3.22424000"}, {"name": "Buggenhout", "state": "", "lat": "51.01590000", "lng": "4.20173000"}, {"name": "Damme", "state": "", "lat": "51.25147000", "lng": "3.28144000"}, {"name": "De Haan", "state": "", "lat": "51.27261000", "lng": "3.03446000"}, {"name": "De Panne", "state": "", "lat": "51.09793000", "lng": "2.59368000"}, {"name": "De Pinte", "state": "", "lat": "50.99339000", "lng": "3.64747000"}, {"name": "Deerlijk", "state": "", "lat": "50.85337000", "lng": "3.35416000"}, {"name": "Deinze", "state": "", "lat": "50.98175000", "lng": "3.53096000"}, {"name": "Denderleeuw", "state": "", "lat": "50.88506000", "lng": "4.07601000"}, {"name": "Dendermonde", "state": "", "lat": "51.02869000", "lng": "4.10106000"}, {"name": "Dentergem", "state": "", "lat": "50.96429000", "lng": "3.41617000"}, {"name": "Dessel", "state": "", "lat": "51.23855000", "lng": "5.11448000"}, {"name": "Destelbergen", "state": "", "lat": "51.05952000", "lng": "3.79899000"}, {"name": "Deurne", "state": "", "lat": "51.22134000", "lng": "4.46595000"}, {"name": "Diegem", "state": "", "lat": "50.89727000", "lng": "4.43354000"}, {"name": "Diepenbeek", "state": "", "lat": "50.90769000", "lng": "5.41875000"}, {"name": "Diest", "state": "", "lat": "50.98923000", "lng": "5.05062000"}, {"name": "Diksmuide", "state": "", "lat": "51.03248000", "lng": "2.86384000"}, {"name": "Dilbeek", "state": "", "lat": "50.84799000", "lng": "4.25972000"}, {"name": "Drogenbos", "state": "", "lat": "50.78733000", "lng": "4.31471000"}, {"name": "Duffel", "state": "", "lat": "51.09554000", "lng": "4.50903000"}, {"name": "Edegem", "state": "", "lat": "51.15662000", "lng": "4.44504000"}, {"name": "Eeklo", "state": "", "lat": "51.18703000", "lng": "3.55654000"}, {"name": "Essen", "state": "", "lat": "51.46791000", "lng": "4.46901000"}, {"name": "Evergem", "state": "", "lat": "51.11306000", "lng": "3.70976000"}, {"name": "Galmaarden", "state": "", "lat": "50.75389000", "lng": "3.97121000"}, {"name": "Gavere", "state": "", "lat": "50.92917000", "lng": "3.66184000"}, {"name": "Geel", "state": "", "lat": "51.16557000", "lng": "4.98917000"}, {"name": "Geetbets", "state": "", "lat": "50.89431000", "lng": "5.11199000"}, {"name": "Genk", "state": "", "lat": "50.96500000", "lng": "5.50082000"}, {"name": "Gent", "state": "", "lat": "51.05000000", "lng": "3.71667000"}, {"name": "Geraardsbergen", "state": "", "lat": "50.77343000", "lng": "3.88223000"}, {"name": "Gingelom", "state": "", "lat": "50.74792000", "lng": "5.13422000"}, {"name": "Gistel", "state": "", "lat": "51.15612000", "lng": "2.96387000"}, {"name": "Glabbeek", "state": "", "lat": "50.87267000", "lng": "4.95615000"}, {"name": "Gooik", "state": "", "lat": "50.79443000", "lng": "4.11378000"}, {"name": "Grimbergen", "state": "", "lat": "50.93409000", "lng": "4.37213000"}, {"name": "Grobbendonk", "state": "", "lat": "51.19043000", "lng": "4.73562000"}, {"name": "Haacht", "state": "", "lat": "50.97737000", "lng": "4.63777000"}, {"name": "Haaltert", "state": "", "lat": "50.90634000", "lng": "4.00093000"}, {"name": "Halen", "state": "", "lat": "50.94837000", "lng": "5.11096000"}, {"name": "Halle", "state": "", "lat": "50.73385000", "lng": "4.23454000"}, {"name": "Hamme", "state": "", "lat": "51.09822000", "lng": "4.13705000"}, {"name": "Harelbeke", "state": "", "lat": "50.85343000", "lng": "3.30935000"}, {"name": "Hasselt", "state": "", "lat": "50.93106000", "lng": "5.33781000"}, {"name": "Heers", "state": "", "lat": "50.75383000", "lng": "5.30210000"}, {"name": "Heist-op-den-Berg", "state": "", "lat": "51.07537000", "lng": "4.72827000"}, {"name": "Helchteren", "state": "", "lat": "51.05591000", "lng": "5.38244000"}, {"name": "Hemiksem", "state": "", "lat": "51.14484000", "lng": "4.33874000"}, {"name": "Herent", "state": "", "lat": "50.90861000", "lng": "4.67056000"}, {"name": "Herentals", "state": "", "lat": "51.17655000", "lng": "4.83248000"}, {"name": "Herenthout", "state": "", "lat": "51.14010000", "lng": "4.75572000"}, {"name": "Herk-de-Stad", "state": "", "lat": "50.94013000", "lng": "5.16636000"}, {"name": "Herne", "state": "", "lat": "50.72423000", "lng": "4.03481000"}, {"name": "Herselt", "state": "", "lat": "51.05159000", "lng": "4.88231000"}, {"name": "Herzele", "state": "", "lat": "50.88681000", "lng": "3.89014000"}], "BZ": [{"name": "Belize City", "state": "", "lat": "17.49952000", "lng": "-88.19756000"}, {"name": "San Pedro", "state": "", "lat": "17.91598000", "lng": "-87.96590000"}, {"name": "Belmopan", "state": "", "lat": "17.25000000", "lng": "-88.76667000"}, {"name": "Benque Viejo el Carmen", "state": "", "lat": "17.07500000", "lng": "-89.13917000"}, {"name": "San Ignacio", "state": "", "lat": "17.15880000", "lng": "-89.06960000"}, {"name": "Valley of Peace", "state": "", "lat": "17.33472000", "lng": "-88.83472000"}, {"name": "Corozal", "state": "", "lat": "18.39375000", "lng": "-88.38849000"}, {"name": "Hopelchén", "state": "", "lat": "17.80000000", "lng": "-89.10000000"}, {"name": "Orange Walk", "state": "", "lat": "18.08124000", "lng": "-88.56328000"}, {"name": "Shipyard", "state": "", "lat": "17.89382000", "lng": "-88.65452000"}, {"name": "Dangriga", "state": "", "lat": "16.96970000", "lng": "-88.23313000"}, {"name": "Placencia", "state": "", "lat": "16.51419000", "lng": "-88.36647000"}, {"name": "Punta Gorda", "state": "", "lat": "16.09835000", "lng": "-88.80970000"}], "BJ": [{"name": "Banikoara", "state": "", "lat": "11.29845000", "lng": "2.43856000"}, {"name": "Kandi", "state": "", "lat": "11.13417000", "lng": "2.93861000"}, {"name": "Malanville", "state": "", "lat": "11.86819000", "lng": "3.38327000"}, {"name": "Guilmaro", "state": "", "lat": "10.56583000", "lng": "1.72444000"}, {"name": "Natitingou", "state": "", "lat": "10.30416000", "lng": "1.37962000"}, {"name": "Tanguieta", "state": "", "lat": "11.03621000", "lng": "1.41757000"}, {"name": "Abomey-Calavi", "state": "", "lat": "6.44852000", "lng": "2.35566000"}, {"name": "Allada", "state": "", "lat": "6.66547000", "lng": "2.15138000"}, {"name": "Hévié", "state": "", "lat": "6.41667000", "lng": "2.25000000"}, {"name": "Hinvi", "state": "", "lat": "6.76667000", "lng": "2.16667000"}, {"name": "Ouidah", "state": "", "lat": "6.36307000", "lng": "2.08506000"}, {"name": "Bembèrèkè", "state": "", "lat": "10.22827000", "lng": "2.66335000"}, {"name": "Bétérou", "state": "", "lat": "9.19916000", "lng": "2.25855000"}, {"name": "Nikki", "state": "", "lat": "9.94009000", "lng": "3.21075000"}, {"name": "Parakou", "state": "", "lat": "9.33716000", "lng": "2.63031000"}, {"name": "Tchaourou", "state": "", "lat": "8.88649000", "lng": "2.59753000"}, {"name": "Comé", "state": "", "lat": "6.40764000", "lng": "1.88198000"}, {"name": "Dassa-Zoumé", "state": "", "lat": "7.75000000", "lng": "2.18333000"}, {"name": "Savalou", "state": "", "lat": "7.92807000", "lng": "1.97558000"}, {"name": "Savé", "state": "", "lat": "8.03424000", "lng": "2.48660000"}, {"name": "Bassila", "state": "", "lat": "9.00814000", "lng": "1.66540000"}, {"name": "Commune of Djougou", "state": "", "lat": "9.64300000", "lng": "1.89600000"}, {"name": "Djougou", "state": "", "lat": "9.70853000", "lng": "1.66598000"},