{"AF": [{"name": "Cultural Landscape and Archaeological Remains of the Bamiyan Valley", "type": "unesco", "lat": 34.84694, "lng": 67.82525}, {"name": "Minaret and Archaeological Remains of Jam", "type": "unesco", "lat": 34.39655556, "lng": 64.51605556}, {"name": "Wakhan National Park", "type": "park", "lat": 36.845432, "lng": 72.28375}, {"name": "Band-i-Amir National Park", "type": "park", "lat": 34.8424366, "lng": 67.211793}], "AL": [{"name": "Historic Centres of Berat and Gjirokastra", "type": "unesco", "lat": 40.06944444, "lng": 20.13333333}, {"name": "Butrint", "type": "unesco", "lat": 39.75111111, "lng": 20.02611111}, {"name": "Thethi", "type": "park", "lat": 42.4045655, "lng": 19.7680967}, {"name": "Qafe Shtame", "type": "park", "lat": 41.5207241, "lng": 19.8922062}, {"name": "Bredhi I Hotoves-Dangelli", "type": "park", "lat": 40.3674634, "lng": 20.4280433}, {"name": "Lugina E Valbones", "type": "park", "lat": 42.4258646, "lng": 19.925868}, {"name": "Prespa", "type": "park", "lat": 40.88331609999999, "lng": 21.022196}, {"name": "Shebenik-Jabllanice", "type": "park", "lat": 41.2, "lng": 20.47}, {"name": "Llogara", "type": "park", "lat": 40.2177468, "lng": 19.5627596}, {"name": "Mali I Tomorrit", "type": "park", "lat": 40.6228328, "lng": 20.1759975}, {"name": "Mali I Dajtit", "type": "park", "lat": 41.3674489, "lng": 19.9226278}, {"name": "Butrinti", "type": "park", "lat": 39.74424, "lng": 20.02507}, {"name": "Bredhi I Drenoves", "type": "park", "lat": 40.5661902, "lng": 20.8254896}, {"name": "Zgjerimi I Pk Mali I Tomorrit", "type": "park", "lat": 40.7094608, "lng": 20.128347}, {"name": "Lurë–Mali I Dejës", "type": "park", "lat": 41.7878582, "lng": 20.1944958}], "DZ": [{"name": "Al Qal'a of Beni Hammad", "type": "unesco", "lat": 35.81844, "lng": 4.78684}, {"name": "Tassili n'Ajjer", "type": "unesco", "lat": 25.5, "lng": 9}, {"name": "M'Zab Valley", "type": "unesco", "lat": 32.48333, "lng": 3.68333}, {"name": "Djémila", "type": "unesco", "lat": 36.32056, "lng": 5.73667}, {"name": "Tipasa", "type": "unesco", "lat": 36.55, "lng": 2.383333333}, {"name": "Timgad", "type": "unesco", "lat": 35.45, "lng": 6.63333}, {"name": "Kasbah of Algiers", "type": "unesco", "lat": 36.78333, "lng": 3.06028}, {"name": "Babor-Tababort", "type": "park", "lat": 36.5373507, "lng": 5.4716947}, {"name": "Taza", "type": "park", "lat": 36.6038004, "lng": 5.4918094}, {"name": "Gouraya", "type": "park", "lat": 36.5719658, "lng": 1.9030585}, {"name": "Belezma", "type": "park", "lat": 35.666667, "lng": 5.899999999999999}, {"name": "Djurdjura", "type": "park", "lat": 36.4511111, "lng": 4.229722199999999}, {"name": "Théniet El Had", "type": "park", "lat": 35.8708508, "lng": 2.0240894}, {"name": "Chréa", "type": "park", "lat": 36.42676000000001, "lng": 2.8765378}, {"name": "Tlemcen", "type": "park", "lat": 34.8828864, "lng": -1.3166815}, {"name": "El Kala", "type": "park", "lat": 36.8856754, "lng": 8.4408187}, {"name": "Parc National de Djebel Aissa", "type": "park", "lat": 32.873056, "lng": 0.486111}], "AD": [{"name": "Madriu-Perafita-Claror Valley", "type": "unesco", "lat": 42.49472222, "lng": 1.595555556}], "AG": [{"name": "Antigua Naval Dockyard and Related Archaeological Sites", "type": "unesco", "lat": 17.0069444444, "lng": -61.7616666667}, {"name": "Greencastle", "type": "park", "lat": 17.0735577, "lng": -61.8504288}, {"name": "Boggy Peak", "type": "park", "lat": 17.0448598, "lng": -61.8611253}], "AR": [{"name": "Los Glaciares National Park", "type": "unesco", "lat": -50, "lng": -73.24944}, {"name": "Iguazu National Park", "type": "unesco", "lat": -25.51805556, "lng": -54.13333333}, {"name": "Cueva de las Manos, Río Pinturas", "type": "unesco", "lat": -47.15, "lng": -70.66666667}, {"name": "Península Valdés", "type": "unesco", "lat": -42.5, "lng": -64}, {"name": "Ischigualasto / Talampaya Natural Parks", "type": "unesco", "lat": -30, "lng": -68}, {"name": "Jesuit Block and Estancias of Córdoba", "type": "unesco", "lat": -31.42056, "lng": -64.19111}, {"name": "Quebrada de Humahuaca", "type": "unesco", "lat": -23.19986111, "lng": -65.34886111}, {"name": "Lanín", "type": "park", "lat": -39.6372198, "lng": -71.50235090000001}, {"name": "El Leoncito", "type": "park", "lat": -31.79741529999999, "lng": -69.37395099999999}, {"name": "Sierra de las Quijadas", "type": "park", "lat": -32.4999567, "lng": -67.0105574}, {"name": "Mburucuyá", "type": "park", "lat": -28.0485138, "lng": -58.2251109}, {"name": "El Impenetrable", "type": "park", "lat": -25.009452, "lng": -60.99592449999999}, {"name": "San Guillermo", "type": "park", "lat": -30.35908, "lng": -61.91688539999999}, {"name": "Lago Puelo", "type": "park", "lat": -42.061269, "lng": -71.5971258}, {"name": "Nahuel Huapi", "type": "park", "lat": -40.9256177, "lng": -71.51506549999999}, {"name": "Iberá - Núcleo Cambyretá", "type": "park", "lat": -28.3430649, "lng": -57.3431396}, {"name": "Copo", "type": "park", "lat": -26.002374, "lng": -62.2626627}, {"name": "Río Pilcomayo", "type": "park", "lat": -22.4733246, "lng": -62.2889448}, {"name": "Pre-Delta", "type": "park", "lat": -32.1216029, "lng": -60.6340393}, {"name": "Campos del Tuyú", "type": "park", "lat": -36.3692999, "lng": -56.9073147}, {"name": "Chaco", "type": "park", "lat": -27.4257175, "lng": -59.02437839999999}, {"name": "Laguna Blanca", "type": "park", "lat": -25.1266785, "lng": -58.24466529999999}, {"name": "Lihué Calel", "type": "park", "lat": -38.3289588, "lng": -64.90595499999999}, {"name": "Iberá - Rincón del Socorro/Iberá", "type": "park", "lat": -28.6586223, "lng": -57.43399890000001}, {"name": "Quebrada del Condorito", "type": "park", "lat": -31.6113985, "lng": -64.71288609999999}, {"name": "Iberá - Núcleo Carambola", "type": "park", "lat": -28.3430649, "lng": -57.3431396}, {"name": "Traslasierra", "type": "park", "lat": -32.084217, "lng": -65.1432518}, {"name": "Islas de Santa Fé", "type": "park", "lat": -32.279833, "lng": -60.7213894}, {"name": "Iberá - Núcleo San Nicolás/San Alonso", "type": "park", "lat": -28.3325998, "lng": -57.3722545}, {"name": "Monte León", "type": "park", "lat": -50.2642303, "lng": -68.9584374}, {"name": "Perito Moreno", "type": "park", "lat": -50.4967297, "lng": -73.1376612}, {"name": "Nahuel Huapi", "type": "park", "lat": -40.9256177, "lng": -71.51506549999999}, {"name": "Los Glaciares", "type": "park", "lat": -50.3305556, "lng": -73.2341667}, {"name": "Los Glaciares", "type": "park", "lat": -50.3305556, "lng": -73.2341667}, {"name": "Los Alerces", "type": "park", "lat": -42.9741301, "lng": -71.6438598}, {"name": "Los Alerces", "type": "park", "lat": -42.9741301, "lng": -71.6438598}, {"name": "Lanín", "type": "park", "lat": -39.6372198, "lng": -71.50235090000001}, {"name": "Lago Puelo", "type": "park", "lat": -42.061269, "lng": -71.5971258}, {"name": "Iberá - Núcleo Carambola", "type": "park", "lat": -28.3430649, "lng": -57.3431396}, {"name": "Iberá - Rincón del Socorro/Iberá", "type": "park", "lat": -28.6586223, "lng": -57.43399890000001}, {"name": "Baritú", "type": "park", "lat": -22.4463542, "lng": -64.6663068}, {"name": "Ciervo de los Pantanos", "type": "park", "lat": -34.2247196, "lng": -58.8965274}, {"name": "El Rey", "type": "park", "lat": -24.7, "lng": -64.633333}, {"name": "Quebrada del Condorito", "type": "park", "lat": -31.6113985, "lng": -64.71288609999999}, {"name": "Talampaya", "type": "park", "lat": -29.8906226, "lng": -67.85346799999999}, {"name": "Laguna Blanca", "type": "park", "lat": -25.1266785, "lng": -58.24466529999999}, {"name": "Los Cardones", "type": "park", "lat": -25.2343529, "lng": -65.94762779999999}, {"name": "El Nogalar de Los Toldos", "type": "park", "lat": -22.2788409, "lng": -64.7049176}, {"name": "Bosques Petrificados de Jaramillo", "type": "park", "lat": -47.6721012, "lng": -67.9917364}, {"name": "Monte León", "type": "park", "lat": -50.2642303, "lng": -68.9584374}, {"name": "Perito Moreno", "type": "park", "lat": -50.4967297, "lng": -73.1376612}, {"name": "Los Arrayanes", "type": "park", "lat": -40.78391999999999, "lng": -71.66046899999999}, {"name": "Calilegua", "type": "park", "lat": -23.7745621, "lng": -64.7700507}, {"name": "El Palmar", "type": "park", "lat": -31.8645152, "lng": -58.2590909}, {"name": "Pizarro", "type": "park", "lat": -34.6425553, "lng": -58.5007186}, {"name": "Aconquija", "type": "park", "lat": -27.470099, "lng": -66.0125499}, {"name": "Aconquija", "type": "park", "lat": -27.470099, "lng": -66.0125499}, {"name": "Iguazú", "type": "park", "lat": -25.695259, "lng": -54.4366662}, {"name": "Iguazú", "type": "park", "lat": -25.695259, "lng": -54.4366662}, {"name": "Patagonia", "type": "park", "lat": -41.8101472, "lng": -68.9062689}, {"name": "Tierra del Fuego", "type": "park", "lat": -54.8053998, "lng": -68.3242061}, {"name": "Quebracho de la Legua", "type": "park", "lat": -32.3499809, "lng": -66.916606}, {"name": "Vaquerías", "type": "park", "lat": -31.1198601, "lng": -64.4578587}], "AM": [{"name": "Monasteries of Haghpat and Sanahin", "type": "unesco", "lat": 41.095, "lng": 44.71028}, {"name": "Monastery of Geghard and the Upper Azat Valley", "type": "unesco", "lat": 40.15889, "lng": 44.79667}, {"name": "Cathedral and Churches of Echmiatsin and the Archaeological Site of Zvartnots", "type": "unesco", "lat": 40.15931, "lng": 44.29514}, {"name": "Lake Arpi", "type": "park", "lat": 41.0672222, "lng": 43.63}, {"name": "Dilijan", "type": "park", "lat": 40.7405524, "lng": 44.8625965}, {"name": "Sevan", "type": "park", "lat": 40.5484721, "lng": 44.96181319999999}, {"name": "Arevik", "type": "park", "lat": 40.1013438, "lng": 44.0937419}], "AU": [{"name": "Kakadu National Park", "type": "unesco", "lat": -12.83333333, "lng": 132.8333333}, {"name": "Great Barrier Reef", "type": "unesco", "lat": -18.28611111, "lng": 147.7}, {"name": "Sydney Opera House", "type": "unesco", "lat": -33.8566666667, "lng": 151.2152777777}, {"name": "Willandra Lakes Region", "type": "unesco", "lat": -34, "lng": 143}, {"name": "Tasmanian Wilderness", "type": "unesco", "lat": -41.58333333, "lng": 145.4166667}, {"name": "Lord Howe Island Group", "type": "unesco", "lat": -31.56555556, "lng": 159.0883333}, {"name": "Gondwana Rainforests of Australia", "type": "unesco", "lat": -28.25, "lng": 150.05}, {"name": "Ulu<U>r</U>u-Kata Tju<U>t</U>a National Park", "type": "unesco", "lat": -25.33333333, "lng": 131}, {"name": "Wet Tropics of Queensland", "type": "unesco", "lat": -15.65, "lng": 144.9666667}, {"name": "Heard and McDonald Islands", "type": "unesco", "lat": -53.1, "lng": 73.5}, {"name": "Shark Bay, Western Australia", "type": "unesco", "lat": -25.48611111, "lng": 113.4361111}, {"name": "Macquarie Island", "type": "unesco", "lat": -54.59472222, "lng": 158.8955556}, {"name": "Fraser Island", "type": "unesco", "lat": -25.21666667, "lng": 153.1333333}, {"name": "Australian Fossil Mammal Sites (Riversleigh / Naracoorte)", "type": "unesco", "lat": -19.08333333, "lng": 138.7166667}, {"name": "Greater Blue Mountains Area", "type": "unesco", "lat": -33.7, "lng": 150}, {"name": "Purnululu National Park", "type": "unesco", "lat": -17.5, "lng": 128.5}, {"name": "Royal Exhibition Building and Carlton Gardens", "type": "unesco", "lat": -37.80611111, "lng": 144.9702778}, {"name": "Australian Convict Sites", "type": "unesco", "lat": -33.3783333333, "lng": 150.9944444444}, {"name": "Ningaloo Coast", "type": "unesco", "lat": -22.5625, "lng": 113.8102777778}, {"name": "Woko", "type": "park", "lat": -31.8103365, "lng": 151.8444507}, {"name": "Yabbra", "type": "park", "lat": -28.6156513, "lng": 152.5395894}, {"name": "Tarlo River", "type": "park", "lat": -34.5495854, "lng": 149.8753886}, {"name": "Goulburn River", "type": "park", "lat": -36.6863742, "lng": 145.2233924}, {"name": "Washpool", "type": "park", "lat": -28.7975205, "lng": 151.8405712}, {"name": "Nightcap", "type": "park", "lat": -28.5452674, "lng": 153.287876}, {"name": "Biamanga", "type": "park", "lat": -36.5222354, "lng": 149.8988164}, {"name": "Garigal", "type": "park", "lat": -33.7272539, "lng": 151.1940444}, {"name": "Nattai", "type": "park", "lat": -34.307717, "lng": 150.3837718}, {"name": "Cattai", "type": "park", "lat": -33.5561, "lng": 150.91205}, {"name": "Georges River", "type": "park", "lat": -34.0494645, "lng": 150.8953368}, {"name": "Booti Booti", "type": "park", "lat": -32.3127096, "lng": 152.5179343}, {"name": "Bournda", "type": "park", "lat": -36.83143190000001, "lng": 149.9003176}, {"name": "Lane Cove", "type": "park", "lat": -33.8148145, "lng": 151.1663935}, {"name": "Conjola", "type": "park", "lat": -35.2696191, "lng": 150.4810158}, {"name": "Popran", "type": "park", "lat": -33.4306971, "lng": 151.204867}, {"name": "Gardens of Stone", "type": "park", "lat": -33.1589794, "lng": 150.049074}, {"name": "Coolah Tops", "type": "park", "lat": -31.7600902, "lng": 150.0949307}, {"name": "Bongil Bongil", "type": "park", "lat": -30.4188668, "lng": 153.0255036}, {"name": "Jervis Bay", "type": "park", "lat": -35.0480805, "lng": 150.7446771}, {"name": "Tooloom", "type": "park", "lat": -28.6019203, "lng": 152.443393}, {"name": "Toonumbar", "type": "park", "lat": -28.5627381, "lng": 152.7919913}, {"name": "Abercrombie River", "type": "park", "lat": -34.029855, "lng": 149.4937364}, {"name": "Eurobodalla", "type": "park", "lat": -35.8894726, "lng": 149.9334764}, {"name": "Goobang", "type": "park", "lat": -33.263685, "lng": 147.6615637}, {"name": "Mount Jerusalem", "type": "park", "lat": -28.4930841, "lng": 153.3623524}, {"name": "Brindabella", "type": "park", "lat": -35.393561, "lng": 148.7484515}, {"name": "Chaelundi", "type": "park", "lat": -29.9743203, "lng": 152.4285897}, {"name": "Dunggir", "type": "park", "lat": -30.6757105, "lng": 152.6559808}, {"name": "Fortis Creek", "type": "park", "lat": -29.5311326, "lng": 152.8786722}, {"name": "Mount Royal", "type": "park", "lat": -32.2479309, "lng": 151.2760425}, {"name": "Middle Brother", "type": "park", "lat": -31.705447, "lng": 152.7137495}, {"name": "Mummel Gulf", "type": "park", "lat": -31.3397, "lng": 151.8526229}, {"name": "Nowendoc", "type": "park", "lat": -31.414817, "lng": 151.6969114}, {"name": "Bindarri", "type": "park", "lat": -30.2756155, "lng": 152.8999986}, {"name": "Wallingat", "type": "park", "lat": -32.3031978, "lng": 152.4566525}, {"name": "Watagans", "type": "park", "lat": -33.0183094, "lng": 151.4485757}, {"name": "Basket Swamp", "type": "park", "lat": -28.9343744, "lng": 152.1534326}, {"name": "Kwiambal", "type": "park", "lat": -29.1704862, "lng": 150.9762258}, {"name": "Bangadilly", "type": "park", "lat": -34.4669933, "lng": 150.170557}, {"name": "Bimberamala", "type": "park", "lat": -35.4668414, "lng": 150.1509896}, {"name": "Bugong", "type": "park", "lat": -34.8168695, "lng": 150.4515306}, {"name": "Clyde River", "type": "park", "lat": -35.4462667, "lng": 150.2260864}, {"name": "Gourock", "type": "park", "lat": -35.9196793, "lng": 149.5066376}, {"name": "Gulaga", "type": "park", "lat": -36.3061721, "lng": 150.0283378}, {"name": "Jerrawangala", "type": "park", "lat": -35.1132038, "lng": 150.4774449}, {"name": "Kooraban", "type": "park", "lat": -36.338152, "lng": 149.9242401}, {"name": "Meroo", "type": "park", "lat": -35.4759406, "lng": 150.39033}, {"name": "Monga", "type": "park", "lat": -35.5398536, "lng": 149.9242105}, {"name": "Tallaganda", "type": "park", "lat": -35.7290627, "lng": 149.472728}, {"name": "Yarriabini", "type": "park", "lat": -30.7949203, "lng": 152.9479655}, {"name": "Limmen", "type": "park", "lat": -14.892797, "lng": 135.0100209}, {"name": "Girraween", "type": "park", "lat": -33.80128, "lng": 150.94305}, {"name": "Carnarvon", "type": "park", "lat": -24.8877473, "lng": 113.6621827}, {"name": "Hinchinbrook Island", "type": "park", "lat": -18.3362903, "lng": 146.2258805}, {"name": "Crater Lakes", "type": "park", "lat": -17.2813889, "lng": 145.6238889}, {"name": "Keppel Bay Islands", "type": "park", "lat": -23.0732776, "lng": 150.895086}, {"name": "Noosa", "type": "park", "lat": -26.3645433, "lng": 152.9676695}, {"name": "Conondale", "type": "park", "lat": -26.7435127, "lng": 152.7314369}, {"name": "Litchfield", "type": "park", "lat": -13.2935376, "lng": 130.8463877}, {"name": "Warby-Ovens", "type": "park", "lat": -36.310439, "lng": 146.2084861}, {"name": "Garig Gunak Barlu", "type": "park", "lat": -11.3952202, "lng": 132.2682896}, {"name": "Tamborine", "type": "park", "lat": -27.8816, "lng": 153.13}, {"name": "Bunya Mountains", "type": "park", "lat": -26.8844751, "lng": 151.5971993}, {"name": "Namadgi", "type": "park", "lat": -35.641093, "lng": 148.9256621}, {"name": "Namadgi", "type": "park", "lat": -35.641093, "lng": 148.9256621}, {"name": "Namadgi", "type": "park", "lat": -35.641093, "lng": 148.9256621}, {"name": "Tully Gorge", "type": "park", "lat": -17.7734095, "lng": 145.6987014}, {"name": "Booderee", "type": "park", "lat": -35.1338099, "lng": 150.6859962}, {"name": "Kakadu", "type": "park", "lat": -13.0922931, "lng": 132.3937658}, {"name": "Mount Pinbarren", "type": "park", "lat": -26.3166667, "lng": 152.85}, {"name": "Uluru-Kata Tjuta", "type": "park", "lat": -25.3008333, "lng": 130.7372222}, {"name": "Yalgorup", "type": "park", "lat": -32.8977988, "lng": 115.6902207}, {"name": "Milyeannup", "type": "park", "lat": -34.1668999, "lng": 115.6391526}, {"name": "Blue Mountains", "type": "park", "lat": -33.409983, "lng": 150.3037323}, {"name": "Brisbane Water", "type": "park", "lat": -33.4780279, "lng": 151.3334971}, {"name": "Broadwater", "type": "park", "lat": -28.6486446, "lng": 151.8760283}, {"name": "Indwarra", "type": "park", "lat": -33.6825877, "lng": 150.9495537}, {"name": "Hat Head", "type": "park", "lat": -31.0587191, "lng": 153.0519208}, {"name": "Heathcote", "type": "park", "lat": -36.916667, "lng": 144.7}, {"name": "Kanangra-Boyd", "type": "park", "lat": -33.8318817, "lng": 149.9997834}, {"name": "Kinchega", "type": "park", "lat": -32.5392602, "lng": 142.2974988}, {"name": "Kosciuszko", "type": "park", "lat": -36.45589750000001, "lng": 148.2635987}, {"name": "Ku-ring-gai Chase", "type": "park", "lat": -33.6375668, "lng": 151.2339007}, {"name": "Macquarie Pass", "type": "park", "lat": -34.5666667, "lng": 150.6666667}, {"name": "Mimosa Rocks", "type": "park", "lat": -36.624865, "lng": 149.9878995}, {"name": "Morton", "type": "park", "lat": -35.41679269999999, "lng": 150.3461016}, {"name": "Mount Imlay", "type": "park", "lat": -37.1617967, "lng": 149.7376158}, {"name": "Murramarang", "type": "park", "lat": -35.5245363, "lng": 150.4027909}, {"name": "Myall Lakes", "type": "park", "lat": -32.4253774, "lng": 152.3858543}, {"name": "New England", "type": "park", "lat": -30, "lng": 151.8333333}, {"name": "Royal", "type": "park", "lat": -33.9684219, "lng": 151.0669371}, {"name": "Seven Mile Beach", "type": "park", "lat": -34.7725374, "lng": 150.8133315}, {"name": "Sturt", "type": "park", "lat": -35.0235516, "lng": 138.5549953}, {"name": "Yuraygir", "type": "park", "lat": -29.8247308, "lng": 153.2802365}, {"name": "Bundjalung", "type": "park", "lat": -29.3501969, "lng": 153.2898323}, {"name": "Werrikimbe", "type": "park", "lat": -31.25014059999999, "lng": 152.2114489}, {"name": "Oxley Wild Rivers", "type": "park", "lat": -31.1062017, "lng": 152.2355742}, {"name": "Bungawalbin", "type": "park", "lat": -29.1163594, "lng": 153.1834587}, {"name": "Butterleaf", "type": "park", "lat": -29.5353773, "lng": 152.0895647}, {"name": "Capoompeta", "type": "park", "lat": -29.389073, "lng": 152.0528356}, {"name": "Barool", "type": "park", "lat": -29.6418955, "lng": 152.2040287}, {"name": "Bald Rock", "type": "park", "lat": -28.8393031, "lng": 152.092273}, {"name": "Barrington Tops", "type": "park", "lat": -32, "lng": 151.4666667}, {"name": "Ben Boyd", "type": "park", "lat": -37.1356629, "lng": 149.9668047}, {"name": "Cocoparra", "type": "park", "lat": -34.1390221, "lng": 146.200394}, {"name": "Crowdy Bay", "type": "park", "lat": -31.7749466, "lng": 152.7431619}, {"name": "Dharug", "type": "park", "lat": -33.3823877, "lng": 151.0704263}, {"name": "Dorrigo", "type": "park", "lat": -30.333333, "lng": 152.716667}, {"name": "Gibraltar Range", "type": "park", "lat": -29.5445748, "lng": 152.2889673}, {"name": "Guy Fawkes River", "type": "park", "lat": -30.1820138, "lng": 152.3169749}, {"name": "Thirlmere Lakes", "type": "park", "lat": -34.2278834, "lng": 150.5432372}, {"name": "Warrumbungle", "type": "park", "lat": -31.5224778, "lng": 149.3800105}, {"name": "Weddin Mountains", "type": "park", "lat": -33.9518541, "lng": 148.0089591}, {"name": "Willandra", "type": "park", "lat": -33.2195727, "lng": 144.9942305}, {"name": "Mount Kaputar", "type": "park", "lat": -30.2845042, "lng": 150.1669261}, {"name": "Mallee Cliffs", "type": "park", "lat": -34.2121778, "lng": 142.624592}, {"name": "Budawang", "type": "park", "lat": -35.457157, "lng": 149.96345}, {"name": "Mungo", "type": "park", "lat": -33.7600797, "lng": 143.0969442}, {"name": "Border Ranges", "type": "park", "lat": -28.3952657, "lng": 153.0700818}, {"name": "Wollemi", "type": "park", "lat": -33.0173721, "lng": 150.376515}, {"name": "Marramarra", "type": "park", "lat": -33.4945647, "lng": 151.0846701}, {"name": "Gundabooka", "type": "park", "lat": -30.53379739999999, "lng": 145.7418433}, {"name": "Scheyville", "type": "park", "lat": -33.6112, "lng": 150.88291}, {"name": "Willi Willi", "type": "park", "lat": -30.9307515, "lng": 152.4712779}, {"name": "Bellinger River", "type": "park", "lat": -30.4332051, "lng": 152.7296388}, {"name": "Cathedral Rock", "type": "park", "lat": -30.44513439999999, "lng": 152.2500635}, {"name": "Deua", "type": "park", "lat": -35.8749205, "lng": 149.9745163}, {"name": "Wadbilliga", "type": "park", "lat": -36.253871, "lng": 149.6098639}, {"name": "Conimbla", "type": "park", "lat": -33.7945593, "lng": 148.4383786}, {"name": "Nymboida", "type": "park", "lat": -29.9011287, "lng": 152.7035618}, {"name": "Boonoo Boonoo", "type": "park", "lat": -28.9345667, "lng": 152.1010209}, {"name": "Nangar", "type": "park", "lat": -33.4348479, "lng": 148.516024}, {"name": "Warrabah", "type": "park", "lat": -30.4843152, "lng": 150.9783723}, {"name": "Tomaree", "type": "park", "lat": -32.7131462, "lng": 152.1865582}, {"name": "Kings Plains", "type": "park", "lat": -33.4996539, "lng": 149.3189007}, {"name": "Yengo", "type": "park", "lat": -32.9845563, "lng": 150.8525178}, {"name": "Culgoa", "type": "park", "lat": -35.7178452, "lng": 143.1040248}, {"name": "Dooragan", "type": "park", "lat": -31.6569996, "lng": 152.7745209}, {"name": "Nymboi-Binderay", "type": "park", "lat": -30.117568, "lng": 152.7207864}, {"name": "Richmond Range", "type": "park", "lat": -28.6967635, "lng": 152.7293247}, {"name": "South East Forest", "type": "park", "lat": -36.9677543, "lng": 149.4605768}, {"name": "Towarri", "type": "park", "lat": -31.8455795, "lng": 150.7562989}, {"name": "Mount Nothofagus", "type": "park", "lat": -28.3133215, "lng": 152.6207256}, {"name": "Mount Pikapene", "type": "park", "lat": -29.050306, "lng": 152.7287143}, {"name": "Mutawintji", "type": "park", "lat": -31.2820204, "lng": 142.3030029}, {"name": "Bago Bluff", "type": "park", "lat": -31.5126308, "lng": 152.651026}, {"name": "Barakee", "type": "park", "lat": -33.2442326, "lng": 150.491949}, {"name": "Junuy Juluum", "type": "park", "lat": -30.2947754, "lng": 152.7235706}, {"name": "Coorabakh", "type": "park", "lat": -31.7138216, "lng": 152.5267429}, {"name": "Biriwal Bulga", "type": "park", "lat": -31.5089562, "lng": 152.2802565}, {"name": "Carrai", "type": "park", "lat": -30.82766609999999, "lng": 152.2238156}, {"name": "Cascade", "type": "park", "lat": -27.5661282, "lng": 152.9622495}, {"name": "Cunnawarra", "type": "park", "lat": -37.28746, "lng": 140.8553875}, {"name": "Tapin Tops", "type": "park", "lat": -31.6982657, "lng": 152.1422629}, {"name": "Cottan-Bimbang", "type": "park", "lat": -31.3740658, "lng": 152.0868168}, {"name": "Kumbatine", "type": "park", "lat": -31.1700065, "lng": 152.5355518}, {"name": "Ghin-Doo-Ee", "type": "park", "lat": -32.2539402, "lng": 152.1043938}, {"name": "Werakata", "type": "park", "lat": -32.7833859, "lng": 151.4021588}, {"name": "Maria", "type": "park", "lat": -42.6451462, "lng": 148.0649698}, {"name": "Goonengerry", "type": "park", "lat": -28.6052931, "lng": 153.4331163}, {"name": "Koreelah", "type": "park", "lat": -28.389955, "lng": 152.4236345}, {"name": "Mallanganee", "type": "park", "lat": -28.9076761, "lng": 152.721835}, {"name": "Maryland", "type": "park", "lat": -32.877801, "lng": 151.6625717}, {"name": "Mebbin", "type": "park", "lat": -28.4498926, "lng": 153.1624078}, {"name": "Mooball", "type": "park", "lat": -28.4337022, "lng": 153.4921029}, {"name": "Mount Clunie", "type": "park", "lat": -28.3251182, "lng": 152.5112725}, {"name": "Ulidarra", "type": "park", "lat": -30.2520676, "lng": 153.0824656}, {"name": "Ramornie", "type": "park", "lat": -29.6221243, "lng": 152.7448809}, {"name": "Single", "type": "park", "lat": -35.27802000000001, "lng": 149.1283462}, {"name": "Warra", "type": "park", "lat": -26.9234031, "lng": 150.9434612}, {"name": "Livingstone", "type": "park", "lat": -33.9272736, "lng": 151.1873702}, {"name": "Minjary", "type": "park", "lat": -35.2082691, "lng": 148.1576164}, {"name": "Woomargama", "type": "park", "lat": -35.8659899, "lng": 147.3120846}, {"name": "Yanununbeyan", "type": "park", "lat": -35.5305796, "lng": 149.4087783}, {"name": "Benambra", "type": "park", "lat": -36.9180065, "lng": 147.7736105}, {"name": "Arakwal", "type": "park", "lat": -28.6450499, "lng": 153.6301516}, {"name": "Blackwood River", "type": "park", "lat": -33.93239190000001, "lng": 116.384921}, {"name": "Turon", "type": "park", "lat": -33.0919573, "lng": 149.708768}, {"name": "Paroo-Darling", "type": "park", "lat": -30.8356066, "lng": 143.3760149}, {"name": "Oolambeyan", "type": "park", "lat": -34.6774458, "lng": 145.2970696}, {"name": "Belford", "type": "park", "lat": -32.6931692, "lng": 151.2853017}, {"name": "Cataract", "type": "park", "lat": -33.8346508, "lng": 151.2052653}, {"name": "Timbarra", "type": "park", "lat": -37.4912025, "lng": 147.9333322}, {"name": "Wallarah", "type": "park", "lat": -33.223, "lng": 151.465}, {"name": "Wollumbin", "type": "park", "lat": -28.3979788, "lng": 153.2719981}, {"name": "Saltwater", "type": "park", "lat": -27.8834462, "lng": 153.3387831}, {"name": "Kalyarr", "type": "park", "lat": -31.5224778, "lng": 149.3800105}, {"name": "Woolooma", "type": "park", "lat": -31.9960782, "lng": 151.2317376}, {"name": "Boyndaminup", "type": "park", "lat": -34.5059005, "lng": 116.6008978}, {"name": "Beelu", "type": "park", "lat": -31.9517529, "lng": 116.1735423}, {"name": "Korung", "type": "park", "lat": -32.0574203, "lng": 116.0956165}, {"name": "Helena", "type": "park", "lat": -37.89432, "lng": 145.135554}, {"name": "Wandoo", "type": "park", "lat": -32.0757118, "lng": 115.8441911}, {"name": "Midgegooroo", "type": "park", "lat": -32.1207554, "lng": 116.1213253}, {"name": "Kemendok", "type": "park", "lat": -34.482523, "lng": 142.4358905}, {"name": "Scone Mountain", "type": "park", "lat": -32.04065980000001, "lng": 150.8892875}, {"name": "Karuah", "type": "park", "lat": -32.6435096, "lng": 151.9754691}, {"name": "Tilligerry", "type": "park", "lat": -32.728756, "lng": 152.005378}, {"name": "Curracabundi", "type": "park", "lat": -33.8782537, "lng": 151.2064242}, {"name": "Wallaroo", "type": "park", "lat": -33.9310843, "lng": 137.6333342}, {"name": "Columbey", "type": "park", "lat": -32.5899028, "lng": 151.7326196}, {"name": "Worimi", "type": "park", "lat": -32.718943, "lng": 152.1428487}, {"name": "Marrangaroo", "type": "park", "lat": -33.433333, "lng": 150.116667}, {"name": "Yanga", "type": "park", "lat": -34.45323450000001, "lng": 143.8018667}, {"name": "Yarrahapinni Wetlands", "type": "park", "lat": -30.8854931, "lng": 152.973555}, {"name": "Gumbaynggirr", "type": "park", "lat": -30.5681452, "lng": 152.561323}, {"name": "Keverstone", "type": "park", "lat": -35.4334422, "lng": 149.0908987}, {"name": "Murray Valley", "type": "park", "lat": -35.3860672, "lng": 143.7443331}, {"name": "Lachlan Valley", "type": "park", "lat": -34.6201265, "lng": 148.7759532}, {"name": "Murrumbidgee Valley", "type": "park", "lat": -34.8033133, "lng": 146.6147238}, {"name": "Gaagal Wanggaan (South Beach)", "type": "park", "lat": -30.6952612, "lng": 152.9914505}, {"name": "Goolawah", "type": "park", "lat": -31.2168839, "lng": 152.9649107}, {"name": "Jimberoo", "type": "park", "lat": -35.3039893, "lng": 149.204971}, {"name": "Bungonia", "type": "park", "lat": -34.85, "lng": 149.95}, {"name": "Toorale", "type": "park", "lat": -30.3166237, "lng": 145.4248962}, {"name": "Capertee", "type": "park", "lat": -33.1465208, "lng": 149.9853953}, {"name": "Mares Forest", "type": "park", "lat": -34.2875429, "lng": 149.9161453}, {"name": "Dharawal", "type": "park", "lat": -34.1582674, "lng": 150.8295104}, {"name": "Limeburners Creek", "type": "park", "lat": -31.30999449999999, "lng": 152.8510981}, {"name": "Sea Acres", "type": "park", "lat": -31.4616282, "lng": 152.9300888}, {"name": "Jindalee", "type": "park", "lat": -31.6506812, "lng": 115.6920211}, {"name": "Bribie Island", "type": "park", "lat": -26.9861003, "lng": 153.1325243}, {"name": "Bendick Murrell", "type": "park", "lat": -34.165, "lng": 148.451111}, {"name": "Arakoon", "type": "park", "lat": -30.9056915, "lng": 153.0644612}, {"name": "Berowra Valley", "type": "park", "lat": -33.6444099, "lng": 151.0992006}, {"name": "Malabar Headland", "type": "park", "lat": -33.95448349999999, "lng": 151.2591212}, {"name": "Everlasting Swamp", "type": "park", "lat": -29.5110246, "lng": 153.0471371}, {"name": "Khappinghat", "type": "park", "lat": -31.9656497, "lng": 152.4797685}, {"name": "Djukbinj", "type": "park", "lat": -12.5869444, "lng": 131.4880556}, {"name": "Mary River", "type": "park", "lat": -26.1847555, "lng": 152.6431741}, {"name": "Mary River", "type": "park", "lat": -26.1847555, "lng": 152.6431741}, {"name": "Iytwelepenty / Davenport Ranges", "type": "park", "lat": -20.8570713, "lng": 134.9680579}, {"name": "Dulcie Range", "type": "park", "lat": -22.5643177, "lng": 135.5723794}, {"name": "Finke Gorge", "type": "park", "lat": -24.127621, "lng": 132.8003556}, {"name": "Finke Gorge", "type": "park", "lat": -24.127621, "lng": 132.8003556}, {"name": "Nitmiluk", "type": "park", "lat": -14.0753098, "lng": 131.9830233}, {"name": "Nitmiluk", "type": "park", "lat": -14.0753098, "lng": 131.9830233}, {"name": "Nitmiluk", "type": "park", "lat": -14.0753098, "lng": 131.9830233}, {"name": "Elsey", "type": "park", "lat": -14.9948144, "lng": 133.4705318}, {"name": "Elsey", "type": "park", "lat": -14.9948144, "lng": 133.4705318}, {"name": "Barranyi (North Island)", "type": "park", "lat": -15.5848351, "lng": 136.8737409}, {"name": "Judbarra / Gregory", "type": "park", "lat": -15.6379124, "lng": 130.8666449}, {"name": "Judbarra / Gregory", "type": "park", "lat": -15.6379124, "lng": 130.8666449}, {"name": "Keep River", "type": "park", "lat": -15.8454212, "lng": 129.1127352}, {"name": "Keep River", "type": "park", "lat": -15.8454212, "lng": 129.1127352}, {"name": "Watarrka", "type": "park", "lat": -24.2855359, "lng": 131.5728937}, {"name": "Tjoritja / West MacDonnell", "type": "park", "lat": -23.740669, "lng": 133.3459744}, {"name": "Fitzroy Island", "type": "park", "lat": -16.9336669, "lng": 145.9943465}, {"name": "Millstream Falls", "type": "park", "lat": -17.630247, "lng": 145.3771176}, {"name": "Fairlies Knob", "type": "park", "lat": -25.5, "lng": 152.2833333}, {"name": "Main Range", "type": "park", "lat": -36.4491621, "lng": 148.2671979}, {"name": "Lamington", "type": "park", "lat": -30.7349262, "lng": 121.4628135}, {"name": "Eudlo Creek", "type": "park", "lat": -26.6911349, "lng": 152.980129}, {"name": "Coalstoun Lakes", "type": "park", "lat": -25.6157511, "lng": 151.9085816}, {"name": "Dularcha", "type": "park", "lat": -26.784057, "lng": 152.9543538}, {"name": "Wooroonooran", "type": "park", "lat": -17.4433196, "lng": 145.8580888}, {"name": "Ravensbourne", "type": "park", "lat": -27.3560974, "lng": 152.1655879}, {"name": "Mount Bauple", "type": "park", "lat": -25.8122102, "lng": 152.5704695}, {"name": "Eungella", "type": "park", "lat": -21.1287503, "lng": 148.4883367}, {"name": "Conway", "type": "park", "lat": -20.4646308, "lng": 148.7298479}, {"name": "Whitsunday Islands", "type": "park", "lat": -20.1862425, "lng": 148.7268546}, {"name": "Springbrook", "type": "park", "lat": -28.183333, "lng": 153.283333}, {"name": "D'Aguilar", "type": "park", "lat": -26.9778, "lng": 152.802}, {"name": "Percy Isles", "type": "park", "lat": -21.6598263, "lng": 150.2631872}, {"name": "South Cumberland Islands", "type": "park", "lat": -20.9189913, "lng": 149.4433083}, {"name": "Gloucester Island", "type": "park", "lat": -20.0109861, "lng": 148.4572907}, {"name": "Mount Hypipamee", "type": "park", "lat": -17.4258883, "lng": 145.4865208}, {"name": "Bowling Green Bay", "type": "park", "lat": -19.3958443, "lng": 147.0056264}, {"name": "Capricorn Coast", "type": "park", "lat": -23.2567065, "lng": 150.829955}, {"name": "Kondalilla", "type": "park", "lat": -26.6711057, "lng": 152.8715272}, {"name": "Mapleton Falls", "type": "park", "lat": -26.6276997, "lng": 152.8410728}, {"name": "Daintree", "type": "park", "lat": -16.25, "lng": 145.316667}, {"name": "Barron Gorge", "type": "park", "lat": -16.880181, "lng": 145.6691959}, {"name": "Chillagoe-Mungana Caves", "type": "park", "lat": -17.1989789, "lng": 144.5134465}, {"name": "Burleigh Head", "type": "park", "lat": -28.104, "lng": 153.436}, {"name": "Ferntree Creek", "type": "park", "lat": -37.3462159, "lng": 147.9583412}, {"name": "Mount Barney", "type": "park", "lat": -28.2294979, "lng": 152.7483378}, {"name": "Freshwater", "type": "park", "lat": -33.7749, "lng": 151.28783}, {"name": "Sarabah", "type": "park", "lat": -28.092615, "lng": 153.1129728}, {"name": "Cape Melville (Cape York Peninsula Aboriginal Land)", "type": "park", "lat": -10.7, "lng": 142.5166667}, {"name": "Mount Walsh", "type": "park", "lat": -25.5615663, "lng": 152.0553195}, {"name": "Moogerah Peaks", "type": "park", "lat": -28.0128752, "lng": 152.5427087}, {"name": "Isla Gorge", "type": "park", "lat": -25.1914426, "lng": 149.9725122}, {"name": "Auburn River", "type": "park", "lat": -25.6416425, "lng": 151.1925242}, {"name": "Pioneer Peaks", "type": "park", "lat": -21.031833, "lng": 148.9378251}, {"name": "Cape Hillsborough", "type": "park", "lat": -20.9241608, "lng": 149.0168384}, {"name": "The Palms", "type": "park", "lat": -26.1939623, "lng": 152.5854768}, {"name": "Mount Aberdeen", "type": "park", "lat": -20.2, "lng": 147.9166667}, {"name": "Paluma Range", "type": "park", "lat": -19.0919023, "lng": 146.2705805}, {"name": "Ella Bay", "type": "park", "lat": -17.4513889, "lng": 146.0675}, {"name": "Yungaburra", "type": "park", "lat": -17.271111, "lng": 145.583056}, {"name": "Expedition (Limited Depth)", "type": "park", "lat": -25.2567274, "lng": 149.0582632}, {"name": "Magnetic Island", "type": "park", "lat": -19.1385305, "lng": 146.8338546}, {"name": "Glass House Mountains", "type": "park", "lat": -26.898, "lng": 152.951}, {"name": "Mooloolah River", "type": "park", "lat": -26.7294696, "lng": 153.1033366}, {"name": "Great Sandy", "type": "park", "lat": -20.790331, "lng": 122.1875101}, {"name": "Castle Tower", "type": "park", "lat": -33.731506, "lng": 151.005087}, {"name": "Moreton Island", "type": "park", "lat": -27.0873207, "lng": 153.4154233}, {"name": "Crows Nest", "type": "park", "lat": -33.82613, "lng": 151.20505}, {"name": "Black Mountain", "type": "park", "lat": -15.6653612, "lng": 145.2314169}, {"name": "Palmerston Rocks", "type": "park", "lat": -17.5686367, "lng": 145.8993219}, {"name": "Brampton Islands", "type": "park", "lat": -20.8080283, "lng": 149.2736268}, {"name": "Clump Mountain", "type": "park", "lat": -17.8185276, "lng": 146.096094}, {"name": "Girringun", "type": "park", "lat": -18.5063818, "lng": 145.7809865}, {"name": "Pipeclay", "type": "park", "lat": -31.4437185, "lng": 152.5365477}, {"name": "Hull River", "type": "park", "lat": -17.983511, "lng": 146.070315}, {"name": "Eubenangee Swamp", "type": "park", "lat": -17.4088549, "lng": 145.9812161}, {"name": "Cape Upstart", "type": "park", "lat": -19.7509877, "lng": 147.8032409}, {"name": "Bellthorpe", "type": "park", "lat": -26.8442, "lng": 152.7182}, {"name": "Palmgrove", "type": "park", "lat": -20.398303, "lng": 148.6962391}, {"name": "Dipperu", "type": "park", "lat": -21.9314204, "lng": 148.7259187}, {"name": "Russell River", "type": "park", "lat": -17.2470829, "lng": 145.943262}, {"name": "Southwood", "type": "park", "lat": -27.8436446, "lng": 150.0031434}, {"name": "Forty Mile Scrub", "type": "park", "lat": -18.0893133, "lng": 144.8621208}, {"name": "Davies Creek", "type": "park", "lat": -17.02311, "lng": 145.5858705}, {"name": "Epping Forest", "type": "park", "lat": -41.7342443, "lng": 147.4079383}, {"name": "Porcupine Gorge", "type": "park", "lat": -20.4092762, "lng": 144.4374515}, {"name": "Mount Cook", "type": "park", "lat": -15.4914151, "lng": 145.2588196}, {"name": "Grey Peaks", "type": "park", "lat": -17.0426925, "lng": 145.8523685}, {"name": "Dryander", "type": "park", "lat": -20.2877277, "lng": 148.6733206}, {"name": "Moresby Range", "type": "park", "lat": -28.6666667, "lng": 114.6666667}, {"name": "Snake Range", "type": "park", "lat": -24.1, "lng": 147.55}, {"name": "Maria Creek", "type": "park", "lat": -27.1188669, "lng": 152.1534359}, {"name": "Mazeppa", "type": "park", "lat": -22.2342437, "lng": 147.2931571}, {"name": "Daarrba (Cape York Peninsula Aboriginal Land)", "type": "park", "lat": -10.7, "lng": 142.5166667}, {"name": "Alton", "type": "park", "lat": -34.6762591, "lng": 149.2695788}, {"name": "Mount Etna Caves", "type": "park", "lat": -23.1666667, "lng": 150.45}, {"name": "Goneaway", "type": "park", "lat": -23.7850985, "lng": 142.1699966}, {"name": "Kroombit Tops", "type": "park", "lat": -24.4027487, "lng": 150.9307341}, {"name": "Cape Palmerston", "type": "park", "lat": -21.5333333, "lng": 149.4833333}, {"name": "Burrum Coast", "type": "park", "lat": -25.1428759, "lng": 152.5588131}, {"name": "Endeavour River", "type": "park", "lat": -15.4410547, "lng": 145.1459464}, {"name": "Mount Chinghee", "type": "park", "lat": -28.3, "lng": 152.95}, {"name": "Halifax Bay Wetlands", "type": "park", "lat": -18.8691442, "lng": 146.2663887}, {"name": "Eurimbula", "type": "park", "lat": -24.1095602, "lng": 151.7202062}, {"name": "Topaz Road", "type": "park", "lat": -17.3654058, "lng": 145.6940781}, {"name": "Possession Island", "type": "park", "lat": -10.7233734, "lng": 142.4012669}, {"name": "Kurrimine Beach", "type": "park", "lat": -17.7400447, "lng": 146.1365456}, {"name": "Mount Jim Crow", "type": "park", "lat": -23.2166667, "lng": 150.6333333}, {"name": "Mount Colosseum", "type": "park", "lat": -24.4108136, "lng": 151.5866106}, {"name": "Jardine River", "type": "park", "lat": -10.964284, "lng": 142.250346}, {"name": "Juunju Daarrba Nhirrpan (Cape York Peninsula Aboriginal Land)", "type": "park", "lat": -16.9220295, "lng": 145.7683359}, {"name": "Staaten River", "type": "park", "lat": -16.4213578, "lng": 141.5162379}, {"name": "Oyala Thumotang (Cape York Peninsula Aboriginal Land)", "type": "park", "lat": -10.7, "lng": 142.5166667}, {"name": "Cania Gorge", "type": "park", "lat": -24.6606487, "lng": 150.9630387}, {"name": "Minerva Hills", "type": "park", "lat": -24.0806859, "lng": 148.0640661}, {"name": "Taunton", "type": "park", "lat": -34.6870681, "lng": 139.0896756}, {"name": "Deepwater", "type": "park", "lat": -29.445554, "lng": 151.8468173}, {"name": "Bendidee", "type": "park", "lat": -28.2984141, "lng": 150.5182348}, {"name": "Blackdown Tableland", "type": "park", "lat": -23.8799652, "lng": 149.1088612}, {"name": "Hasties Swamp", "type": "park", "lat": -17.3002809, "lng": 145.4744311}, {"name": "Littabella", "type": "park", "lat": -24.5999264, "lng": 152.1227049}, {"name": "Mariala", "type": "park", "lat": -26.0288614, "lng": 145.0687982}, {"name": "Peak Range", "type": "park", "lat": -22.6638939, "lng": 148.0214079}, {"name": "Nicoll Scrub", "type": "park", "lat": -28.1872852, "lng": 153.4246368}, {"name": "Bladensburg", "type": "park", "lat": -22.5459354, "lng": 142.9866393}, {"name": "Boodjamulla (Lawn Hill)", "type": "park", "lat": -18.701348, "lng": 138.486854}, {"name": "Southern Moreton Bay Islands", "type": "park", "lat": -27.7782584, "lng": 153.3944613}, {"name": "Poona", "type": "park", "lat": -25.7180591, "lng": 152.9117659}, {"name": "Mount Archer", "type": "park", "lat": -23.3391666, "lng": 150.5773722}, {"name": "Great Basalt Wall", "type": "park", "lat": -20.0007759, "lng": 145.2922335}, {"name": "Camooweal Caves", "type": "park", "lat": -20.0280738, "lng": 138.1796732}, {"name": "Byfield", "type": "park", "lat": -22.8372067, "lng": 150.640093}, {"name": "Wild Cattle Island", "type": "park", "lat": -23.9878172, "lng": 151.414366}, {"name": "Precipice", "type": "park", "lat": -37.058177, "lng": 147.2439899}, {"name": "Hann Tableland", "type": "park", "lat": -16.8746296, "lng": 145.2148736}, {"name": "Undara Volcanic", "type": "park", "lat": -18.3026965, "lng": 144.5656396}, {"name": "Mount O'Connell", "type": "park", "lat": -22.75, "lng": 150.0333333}, {"name": "Fort Lytton", "type": "park", "lat": -27.412242, "lng": 153.150791}, {"name": "Venman Bushland", "type": "park", "lat": -27.6330146, "lng": 153.2001154}, {"name": "White Mountains", "type": "park", "lat": -20.3833333, "lng": 144.9}, {"name": "Rundle Range", "type": "park", "lat": -23.659399, "lng": 150.9714645}, {"name": "Dalrymple", "type": "park", "lat": -34.9435101, "lng": 137.6652051}, {"name": "Erringibba", "type": "park", "lat": -27.2877581, "lng": 149.7083476}, {"name": "Mount Coolum", "type": "park", "lat": -26.566667, "lng": 153.083333}, {"name": "Blackwood", "type": "park", "lat": -35.022684, "lng": 138.6163371}, {"name": "Narrien Range", "type": "park", "lat": -22.9409429, "lng": 146.9773826}, {"name": "Idalia", "type": "park", "lat": -19.3, "lng": 146.816667}, {"name": "Thrushton", "type": "park", "lat": -27.8058032, "lng": 147.6665742}, {"name": "Forest Den", "type": "park", "lat": -22.1326761, "lng": 145.2038278}, {"name": "Nuga Nuga", "type": "park", "lat": -25.0166667, "lng": 148.7}, {"name": "Currawinya", "type": "park", "lat": -28.8443181, "lng": 144.4955957}, {"name": "Lake Bindegolly", "type": "park", "lat": -28.0373104, "lng": 144.163824}, {"name": "Curtis Island", "type": "park", "lat": -23.7565775, "lng": 151.3103895}, {"name": "Chesterton Range", "type": "park", "lat": -26.1708333, "lng": 147.3670341}, {"name": "Bulleringa", "type": "park", "lat": -17.6193042, "lng": 143.9016014}, {"name": "Japoon", "type": "park", "lat": -17.72732, "lng": 145.913895}, {"name": "Hell Hole Gorge", "type": "park", "lat": -25.5388897, "lng": 144.1938221}, {"name": "Wondul Range", "type": "park", "lat": -28.0670996, "lng": 151.0122058}, {"name": "Moorrinya", "type": "park", "lat": -21.4069519, "lng": 144.9391595}, {"name": "Welford", "type": "park", "lat": -25.115887, "lng": 143.717147}, {"name": "Diamantina", "type": "park", "lat": -24.8426236, "lng": 139.6911374}, {"name": "Mount Ossa", "type": "park", "lat": -41.87, "lng": 146.03}, {"name": "Goodedulla", "type": "park", "lat": -23.2012369, "lng": 149.7256516}, {"name": "Lochern", "type": "park", "lat": -24.0584599, "lng": 143.2827118}, {"name": "Culgoa Floodplain", "type": "park", "lat": -28.9273375, "lng": 146.9661233}, {"name": "Triunia", "type": "park", "lat": -26.65292, "lng": 152.9036758}, {"name": "Mount Martin", "type": "park", "lat": -21.098937, "lng": 148.838268}, {"name": "Homevale", "type": "park", "lat": -21.440617, "lng": 148.5265313}, {"name": "Tarong", "type": "park", "lat": -26.7671918, "lng": 151.8672902}, {"name": "Good Night Scrub", "type": "park", "lat": -25.2893269, "lng": 151.8957497}, {"name": "Astrebla Downs", "type": "park", "lat": -24.2059867, "lng": 140.5549719}, {"name": "Tregole", "type": "park", "lat": -26.4896822, "lng": 147.0675028}, {"name": "Blackbraes", "type": "park", "lat": -19.5083615, "lng": 144.0194472}, {"name": "Mowbray", "type": "park", "lat": -41.409, "lng": 147.143}, {"name": "Cudmore (Limited Depth)", "type": "park", "lat": -22.8999756, "lng": 146.3153013}, {"name": "Junee", "type": "park", "lat": -34.8651781, "lng": 147.5805276}, {"name": "Kinrara", "type": "park", "lat": -18.4135616, "lng": 144.9155253}, {"name": "Finucane Island", "type": "park", "lat": -20.3041894, "lng": 118.559371}, {"name": "Nairana", "type": "park", "lat": -33.7381184, "lng": 151.0672458}, {"name": "Mount Mackay", "type": "park", "lat": -17.938555, "lng": 145.993011}, {"name": "Curtain Fig", "type": "park", "lat": -17.2860213, "lng": 145.5739344}, {"name": "Danbulla", "type": "park", "lat": -17.20353, "lng": 145.6705954}, {"name": "Dinden", "type": "park", "lat": -17.0741957, "lng": 145.5919627}, {"name": "Kirrama", "type": "park", "lat": -18.1923688, "lng": 145.5991846}, {"name": "Kuranda", "type": "park", "lat": -16.816667, "lng": 145.633333}, {"name": "Malaan", "type": "park", "lat": -17.5587069, "lng": 145.5524478}, {"name": "Mount Windsor", "type": "park", "lat": -23.636311, "lng": 141.655807}, {"name": "Amamoor", "type": "park", "lat": -26.3486, "lng": 152.6757}, {"name": "Muundhi (Jack River) (Cape York Peninsula Aboriginal Land)", "type": "park", "lat": -14.9718079, "lng": 144.6972774}, {"name": "Tully Falls", "type": "park", "lat": -17.7827828, "lng": 145.5678136}, {"name": "Beninbi", "type": "park", "lat": -37.825365, "lng": 145.094519}, {"name": "Ban Ban", "type": "park", "lat": -34.9277085, "lng": 138.5935008}, {"name": "Benarkin", "type": "park", "lat": -26.886944, "lng": 152.137778}, {"name": "Bluff Hill", "type": "park", "lat": -32.7152778, "lng": 150.1511111}, {"name": "Bingera", "type": "park", "lat": -24.968333, "lng": 152.218889}, {"name": "Cherbourg", "type": "park", "lat": -26.2892523, "lng": 151.9568056}, {"name": "Dawes", "type": "park", "lat": -33.856, "lng": 151.207}, {"name": "Nangur", "type": "park", "lat": -26.1238892, "lng": 151.9872466}, {"name": "Deer Reserve", "type": "park", "lat": -27.0803136, "lng": 152.5149982}, {"name": "Wietalaba", "type": "park", "lat": -29.692836, "lng": 152.1081623}, {"name": "Woocoo", "type": "park", "lat": -25.6909762, "lng": 152.3078993}, {"name": "Woowoonga", "type": "park", "lat": -25.4798488, "lng": 152.0764152}, {"name": "Woroon", "type": "park", "lat": -28.1672351, "lng": 152.6922284}, {"name": "Esk", "type": "park", "lat": -27.233333, "lng": 152.416667}, {"name": "Gatton", "type": "park", "lat": -27.5635802, "lng": 152.2799793}, {"name": "Geham", "type": "park", "lat": -27.3864, "lng": 152.009}, {"name": "Glenbar", "type": "park", "lat": -25.7506195, "lng": 152.3498741}, {"name": "Gympie", "type": "park", "lat": -26.1833529, "lng": 152.6657456}, {"name": "Hampton", "type": "park", "lat": -37.937, "lng": 145.009}, {"name": "Maleny", "type": "park", "lat": -26.7626299, "lng": 152.8522429}, {"name": "Narkoola", "type": "park", "lat": -28.0252486, "lng": 147.0787735}, {"name": "Pidna", "type": "park", "lat": -27.8245922, "lng": 153.3254101}, {"name": "Bulburin", "type": "park", "lat": -24.5642639, "lng": 151.4914083}, {"name": "Dan Dan", "type": "park", "lat": -24.1547471, "lng": 151.0646032}, {"name": "Mudlo", "type": "park", "lat": -25.963041, "lng": 152.2252768}, {"name": "Warro", "type": "park", "lat": -24.6333333, "lng": 151.7166667}, {"name": "Annan River (Yuku Baja-Muliku)", "type": "park", "lat": -15.464706, "lng": 145.250592}, {"name": "Alwal (Cape York Peninsula Aboriginal Land)", "type": "park", "lat": -10.7, "lng": 142.5166667}, {"name": "Glastonbury", "type": "park", "lat": -26.2121376, "lng": 152.5362002}, {"name": "Wongi", "type": "park", "lat": -25.4371109, "lng": 152.5456949}, {"name": "Mount Binga", "type": "park", "lat": -26.9936626, "lng": 151.9894089}, {"name": "Melsonby (Gaarraay) (Cape York Peninsula Aboriginal Land)", "type": "park", "lat": -15.2114635, "lng": 144.8621208}, {"name": "Girramay", "type": "park", "lat": -18.153995, "lng": 145.8164241}, {"name": "Grongah", "type": "park", "lat": -25.9044777, "lng": 152.1571349}, {"name": "Teerk Roo Ra", "type": "park", "lat": -27.4984242, "lng": 153.3550889}, {"name": "Lockyer", "type": "park", "lat": -27.5179079, "lng": 152.0769306}, {"name": "Cordalba", "type": "park", "lat": -25.166667, "lng": 152.216667}, {"name": "Nour Nour", "type": "park", "lat": -33.8867323, "lng": 151.2139076}, {"name": "Lama Lama (Cape York Peninsula Aboriginal Land)", "type": "park", "lat": -10.7, "lng": 142.5166667}, {"name": "Bania", "type": "park", "lat": -24.8833333, "lng": 151.5833333}, {"name": "Herberton Range", "type": "park", "lat": -17.35, "lng": 145.45}, {"name": "Goomboorian", "type": "park", "lat": -26.0733636, "lng": 152.7676633}, {"name": "Mount Spurgeon", "type": "park", "lat": -16.4333333, "lng": 145.2}, {"name": "Kulla (McIlwraith Range) (Cape York Peninsula Aboriginal Land)", "type": "park", "lat": -13.8804814, "lng": 143.3324676}, {"name": "Albinia", "type": "park", "lat": -24.3833749, "lng": 148.4404621}, {"name": "Binya", "type": "park", "lat": -34.0965344, "lng": 146.2912668}, {"name": "Gadgarra", "type": "park", "lat": -17.2663495, "lng": 145.7214362}, {"name": "Little Mulgrave", "type": "park", "lat": -17.1208635, "lng": 145.7031996}, {"name": "Kelvin", "type": "park", "lat": -30.8118621, "lng": 150.3448584}, {"name": "Wrattens", "type": "park", "lat": -26.308626, "lng": 152.3450039}, {"name": "Mount Abbot", "type": "park", "lat": -20.1, "lng": 147.7333333}, {"name": "Oakview", "type": "park", "lat": -26.0726311, "lng": 152.3150826}, {"name": "Nerang", "type": "park", "lat": -27.995556, "lng": 153.322222}, {"name": "Mapleton", "type": "park", "lat": -26.633333, "lng": 152.866667}, {"name": "Mount Lewis", "type": "park", "lat": -33.915, "lng": 151.051}, {"name": "Djiru", "type": "park", "lat": -17.8531822, "lng": 146.0706859}, {"name": "Humboldt", "type": "park", "lat": -24.2643256, "lng": 148.9273205}, {"name": "Tuchekoi", "type": "park", "lat": -26.4041918, "lng": 152.7617837}, {"name": "Wickham", "type": "park", "lat": -20.6731994, "lng": 117.147269}, {"name": "Woondum", "type": "park", "lat": -26.2507055, "lng": 152.7312862}, {"name": "Errk Oykangand (Cape York Peninsula Aboriginal Land)", "type": "park", "lat": -10.7, "lng": 142.5166667}, {"name": "Beeron", "type": "park", "lat": -25.8299533, "lng": 151.2645463}, {"name": "Macalister Range", "type": "park", "lat": -16.7776116, "lng": 145.6550847}, {"name": "Basilisk Range", "type": "park", "lat": -17.6666667, "lng": 146}, {"name": "Pumicestone", "type": "park", "lat": -26.80431, "lng": 153.128613}, {"name": "Tewantin", "type": "park", "lat": -26.392, "lng": 153.039}, {"name": "Koombooloomba", "type": "park", "lat": -17.8166569, "lng": 145.553842}, {"name": "Pinnacles", "type": "park", "lat": -30.5911024, "lng": 115.1602365}, {"name": "Rinyirru (Lakefield) (Cape York Peninsula Aboriginal Land)", "type": "park", "lat": -10.7, "lng": 142.5166667}, {"name": "Kutini-Payamu (Iron Range) (Cape York Peninsula Aboriginal Land)", "type": "park", "lat": -10.7, "lng": 142.5166667}, {"name": "Ngalba Bulal", "type": "park", "lat": -15.8227298, "lng": 145.3300458}, {"name": "Munga-Thirri", "type": "park", "lat": -25.1165242, "lng": 138.1661935}, {"name": "Batavia (Cape York Peninsula Aboriginal Land)", "type": "park", "lat": -10.7, "lng": 142.5166667}, {"name": "Olkola (Cape York Peninsula Aboriginal Land)", "type": "park", "lat": -10.7, "lng": 142.5166667}, {"name": "Biniirr (Cape York Peninsula Aboriginal Land)", "type": "park", "lat": -10.7, "lng": 142.5166667}, {"name": "Expedition", "type": "park", "lat": -34.909342, "lng": 138.5587881}, {"name": "Littleton", "type": "park", "lat": -33.4958431, "lng": 150.1401762}, {"name": "Rungulla", "type": "park", "lat": -19.1525056, "lng": 143.4976801}, {"name": "Ngaynggarr National Park (Cape York Peninsula Aboriginal Land)", "type": "park", "lat": -10.7, "lng": 142.5166667}, {"name": "Wuthathi (Shelburne Bay) National Park (Cape York Peninsula Aboriginal Land)", "type": "park", "lat": -10.7, "lng": 142.5166667}, {"name": "Bromley (Ampulin) National Park (Cape York Peninsula Aboriginal Land)", "type": "park", "lat": -10.7, "lng": 142.5166667}, {"name": "Bromley (Kungkaychi) National Park (Cape York Peninsula Aboriginal Land)", "type": "park", "lat": -10.7, "lng": 142.5166667}, {"name": "Canunda", "type": "park", "lat": -37.6663532, "lng": 140.255014}, {"name": "Mount Remarkable", "type": "park", "lat": -32.7735377, "lng": 138.2393528}, {"name": "Lake Torrens", "type": "park", "lat": -31.0404279, "lng": 137.8427298}, {"name": "Lake Gairdner", "type": "park", "lat": -31.6465444, "lng": 135.9425251}, {"name": "Nullarbor", "type": "park", "lat": -31.0588515, "lng": 130.4877944}, {"name": "Ikara-Flinders Ranges", "type": "park", "lat": -31.5606299, "lng": 138.57523}, {"name": "Southwest", "type": "park", "lat": -34.0556829, "lng": 116.0413889}, {"name": "Strzelecki", "type": "park", "lat": -27.6899762, "lng": 140.4097629}, {"name": "Tasman", "type": "park", "lat": -41.4545196, "lng": 145.9706647}, {"name": "Naracoorte Caves", "type": "park", "lat": -37.0904131, "lng": 140.8297912}, {"name": "Walls of Jerusalem", "type": "park", "lat": -41.9015037, "lng": 146.2526924}, {"name": "Lincoln", "type": "park", "lat": -34.7239963, "lng": 135.8611498}, {"name": "Vulkathunha-Gammon Ranges", "type": "park", "lat": -30.4772031, "lng": 139.2133105}, {"name": "Innes", "type": "park", "lat": -29.7518376, "lng": 151.7361891}, {"name": "Flinders Chase", "type": "park", "lat": -35.8804471, "lng": 136.7008523}, {"name": "Coffin Bay", "type": "park", "lat": -34.6235585, "lng": 135.4654638}, {"name": "Kati Thanda-Lake Eyre", "type": "park", "lat": -28.1750101, "lng": 137.2923893}, {"name": "Witjira", "type": "park", "lat": -26.3929543, "lng": 135.6957101}, {"name": "Belair", "type": "park", "lat": -34.998118, "lng": 138.62254}, {"name": "Murray River", "type": "park", "lat": -35.3860672, "lng": 143.7443331}, {"name": "Onkaparinga River", "type": "park", "lat": -35.1646599, "lng": 138.46952}, {"name": "Gawler Ranges", "type": "park", "lat": -32.5423842, "lng": 135.3325033}, {"name": "Malkumba-Coongie Lakes", "type": "park", "lat": -27.2608783, "lng": 140.1626664}, {"name": "Ben Lomond", "type": "park", "lat": -41.57, "lng": 147.68}, {"name": "Cradle Mountain-Lake St Clair", "type": "park", "lat": -42.0581392, "lng": 146.1656386}, {"name": "Douglas-Apsley", "type": "park", "lat": -41.7852202, "lng": 148.1873679}, {"name": "Franklin-Gordon Wild Rivers", "type": "park", "lat": -42.4720969, "lng": 145.9643555}, {"name": "Freycinet", "type": "park", "lat": -42.2050445, "lng": 148.3033197}, {"name": "Hartz Mountains", "type": "park", "lat": -43.2365934, "lng": 146.767781}, {"name": "Mole Creek Karst", "type": "park", "lat": -41.59616399999999, "lng": 146.2946097}, {"name": "Mount Field", "type": "park", "lat": -42.665807, "lng": 146.5851537}, {"name": "Mount William", "type": "park", "lat": -37.2927778, "lng": 142.6008333}, {"name": "Narawntapu", "type": "park", "lat": -41.1491064, "lng": 146.6032114}, {"name": "Rocky Cape", "type": "park", "lat": -40.9175428, "lng": 145.4782351}, {"name": "Savage River", "type": "park", "lat": -41.5141335, "lng": 145.2163377}, {"name": "South Bruny", "type": "park", "lat": -43.4193653, "lng": 147.249145}, {"name": "Kinglake", "type": "park", "lat": -37.518382, "lng": 145.3591263}, {"name": "Alfred", "type": "park", "lat": -37.8456704, "lng": 144.9819197}, {"name": "Brisbane Ranges", "type": "park", "lat": -37.8542089, "lng": 144.1641917}, {"name": "Tarra-Bulga", "type": "park", "lat": -38.4291055, "lng": 146.5668881}, {"name": "Mornington Peninsula", "type": "park", "lat": -38.2854053, "lng": 145.093449}, {"name": "Dandenong Ranges", "type": "park", "lat": -37.8334732, "lng": 145.3501044}, {"name": "Churchill", "type": "park", "lat": -38.3163383, "lng": 146.4232518}, {"name": "Lake Eildon", "type": "park", "lat": -37.1200442, "lng": 145.8968867}, {"name": "Mitchell River", "type": "park", "lat": -15.9803009, "lng": 142.5254049}, {"name": "Hattah - Kulkyne", "type": "park", "lat": -34.7556363, "lng": 142.3395402}, {"name": "Little Desert", "type": "park", "lat": -36.5025841, "lng": 141.7612263}, {"name": "Lind", "type": "park", "lat": -37.8160756, "lng": 144.9522306}, {"name": "Kara Kara", "type": "park", "lat": -36.85830869999999, "lng": 143.2702234}, {"name": "Lower Glenelg", "type": "park", "lat": -38.0473302, "lng": 141.0062815}, {"name": "French Island", "type": "park", "lat": -38.34893479999999, "lng": 145.3364703}, {"name": "Morwell", "type": "park", "lat": -38.2275886, "lng": 146.4146185}, {"name": "Mount Buffalo", "type": "park", "lat": -36.7833333, "lng": 146.7833333}, {"name": "Budj Bim", "type": "park", "lat": -38.0577375, "lng": 141.9233599}, {"name": "Mount Richmond", "type": "park", "lat": -38.1989932, "lng": 141.3513805}, {"name": "Organ Pipes", "type": "park", "lat": -37.6674193, "lng": 144.7657415}, {"name": "Port Campbell", "type": "park", "lat": -38.6191008, "lng": 142.9961352}, {"name": "Wilsons Promontory", "type": "park", "lat": -38.9333333, "lng": 146.3666667}, {"name": "Wyperfeld", "type": "park", "lat": -35.5865135, "lng": 142.0511392}, {"name": "Burrowa - Pine Mountain", "type": "park", "lat": -36.0183333, "lng": 147.8261111}, {"name": "Croajingolong", "type": "park", "lat": -37.7414712, "lng": 149.4979785}, {"name": "Baw Baw", "type": "park", "lat": -37.8383333, "lng": 146.2736111}, {"name": "Snowy River", "type": "park", "lat": -37.00844, "lng": 148.4295097}, {"name": "Chiltern-Mt Pilot", "type": "park", "lat": -36.15, "lng": 146.6000001}, {"name": "Grampians", "type": "park", "lat": -37.3489752, "lng": 142.3299468}, {"name": "Coopracambra", "type": "park", "lat": -37.3178131, "lng": 149.3570009}, {"name": "Errinundra", "type": "park", "lat": -37.4648602, "lng": 148.7505879}, {"name": "Alpine", "type": "park", "lat": -36.418001, "lng": 148.6261559}, {"name": "Murray - Sunset", "type": "park", "lat": -35.0396448, "lng": 141.7199585}, {"name": "Yarra Ranges", "type": "park", "lat": -37.7450808, "lng": 145.7133909}, {"name": "Terrick Terrick", "type": "park", "lat": -36.0831717, "lng": 144.2849737}, {"name": "Greater Bendigo", "type": "park", "lat": -36.7948261, "lng": 144.3467152}, {"name": "Heathcote-Graytown", "type": "park", "lat": -36.8525999, "lng": 144.9288711}, {"name": "Great Otway", "type": "park", "lat": -38.7912177, "lng": 143.5419225}, {"name": "Barmah", "type": "park", "lat": -36.0175, "lng": 144.965278}, {"name": "Lower Goulburn", "type": "park", "lat": -36.1627778, "lng": 145.1969444}, {"name": "Cobboboonee", "type": "park", "lat": -38.1068096, "lng": 141.4436581}, {"name": "Gunbower", "type": "park", "lat": -35.957222, "lng": 144.370556}, {"name": "Torndirrup", "type": "park", "lat": -35.0556553, "lng": 117.8514627}, {"name": "Stirling Range", "type": "park", "lat": -34.4006165, "lng": 118.1039074}, {"name": "Stirling Range", "type": "park", "lat": -34.4006165, "lng": 118.1039074}, {"name": "Walyunga", "type": "park", "lat": -31.727634, "lng": 116.0709096}, {"name": "Torndirrup", "type": "park", "lat": -35.0556553, "lng": 117.8514627}, {"name": "Warren", "type": "park", "lat": -31.7026474, "lng": 147.8161713}, {"name": "John Forrest", "type": "park", "lat": -31.8948841, "lng": 116.0898743}, {"name": "Warren", "type": "park", "lat": -31.7026474, "lng": 147.8161713}, {"name": "Yanchep", "type": "park", "lat": -31.5470606, "lng": 115.636631}, {"name": "Yalgorup", "type": "park", "lat": -32.8977988, "lng": 115.6902207}, {"name": "Yalgorup", "type": "park", "lat": -32.8977988, "lng": 115.6902207}, {"name": "Yalgorup", "type": "park", "lat": -32.8977988, "lng": 115.6902207}, {"name": "William Bay", "type": "park", "lat": -34.9866288, "lng": 117.2088167}, {"name": "William Bay", "type": "park", "lat": -34.9866288, "lng": 117.2088167}, {"name": "Sir James Mitchell", "type": "park", "lat": -31.9758622, "lng": 115.8637161}, {"name": "Porongurup", "type": "park", "lat": -34.6594667, "lng": 117.8946581}, {"name": "Brockman", "type": "park", "lat": -24.876273, "lng": 113.6508076}, {"name": "Kalamunda", "type": "park", "lat": -31.9755983, "lng": 116.0565936}, {"name": "Lesmurdie Falls", "type": "park", "lat": -31.9900131, "lng": 116.0327157}, {"name": "Lesmurdie Falls", "type": "park", "lat": -31.9900131, "lng": 116.0327157}, {"name": "Cape Le Grand", "type": "park", "lat": -33.956441, "lng": 122.150132}, {"name": "Cape Le Grand", "type": "park", "lat": -33.956441, "lng": 122.150132}, {"name": "Cape Arid", "type": "park", "lat": -33.7049081, "lng": 123.4499743}, {"name": "Watheroo", "type": "park", "lat": -30.2612968, "lng": 116.0682364}, {"name": "Watheroo", "type": "park", "lat": -30.2612968, "lng": 116.0682364}, {"name": "Watheroo", "type": "park", "lat": -30.2612968, "lng": 116.0682364}, {"name": "Nambung", "type": "park", "lat": -30.50626669999999, "lng": 115.2337151}, {"name": "Nambung", "type": "park", "lat": -30.50626669999999, "lng": 115.2337151}, {"name": "Greenmount", "type": "park", "lat": -31.8983463, "lng": 116.0489523}, {"name": "Scott", "type": "park", "lat": -34.854002, "lng": 138.572635}, {"name": "Hassell", "type": "park", "lat": -27.456081, "lng": 153.030404}, {"name": "Waychinicup", "type": "park", "lat": -34.89151409999999, "lng": 118.3276145}, {"name": "West Cape Howe", "type": "park", "lat": -35.1072199, "lng": 117.6165043}, {"name": "Tunnel Creek", "type": "park", "lat": -17.6095611, "lng": 125.1447543}, {"name": "Kalbarri", "type": "park", "lat": -27.7104192, "lng": 114.1646201}, {"name": "Frank Hann", "type": "park", "lat": -32.883971, "lng": 120.415498}, {"name": "Gull Rock", "type": "park", "lat": -35.0101656, "lng": 117.9952777}, {"name": "Prince Regent", "type": "park", "lat": -15.5529295, "lng": 125.3979493}, {"name": "Cape Range", "type": "park", "lat": -22.0709945, "lng": 113.9774289}, {"name": "Neerabup", "type": "park", "lat": -31.6922619, "lng": 115.7608745}, {"name": "Geikie Gorge", "type": "park", "lat": -18.091922, "lng": 125.7079231}, {"name": "Moore River", "type": "park", "lat": -31.1067675, "lng": 115.6781065}, {"name": "Serpentine", "type": "park", "lat": -32.3616954, "lng": 115.9767794}, {"name": "Serpentine", "type": "park", "lat": -32.3616954, "lng": 115.9767794}, {"name": "Wolfe Creek Meteorite Crater", "type": "park", "lat": -19.1666667, "lng": 127.8}, {"name": "Alexander Morrison", "type": "park", "lat": -30.0418873, "lng": 115.556266}, {"name": "Tathra", "type": "park", "lat": -36.7360215, "lng": 149.9674229}, {"name": "Avon Valley", "type": "park", "lat": -31.6057999, "lng": 116.2236672}, {"name": "Gooseberry Hill", "type": "park", "lat": -31.9554445, "lng": 116.0511246}, {"name": "Millstream Chichester", "type": "park", "lat": -21.58701, "lng": 117.0720976}, {"name": "Karijini", "type": "park", "lat": -22.5591185, "lng": 118.4559953}, {"name": "Windjana Gorge", "type": "park", "lat": -17.412684, "lng": 124.942986}, {"name": "Drovers Cave", "type": "park", "lat": -30.2296949, "lng": 115.0927628}, {"name": "Fitzgerald River", "type": "park", "lat": -34.0877758, "lng": 119.5986004}, {"name": "Fitzgerald River", "type": "park", "lat": -34.0877758, "lng": 119.5986004}, {"name": "Badgingarra", "type": "park", "lat": -30.43848869999999, "lng": 115.6268781}, {"name": "Drysdale River", "type": "park", "lat": -14.7696332, "lng": 126.773885}, {"name": "Stokes", "type": "park", "lat": -35.62942260000001, "lng": 137.1901217}, {"name": "Karlamilyi", "type": "park", "lat": -22.5949939, "lng": 122.2544861}, {"name": "Boorabbin", "type": "park", "lat": -30.8372561, "lng": 120.2202619}, {"name": "Collier Range", "type": "park", "lat": -24.5180331, "lng": 119.6306636}, {"name": "Goongarrie", "type": "park", "lat": -29.988279, "lng": 121.027702}, {"name": "Peak Charles", "type": "park", "lat": -32.885121, "lng": 121.175987}, {"name": "Eucla", "type": "park", "lat": -31.6762241, "lng": 128.8891239}, {"name": "D'Entrecasteaux", "type": "park", "lat": -34.8421255, "lng": 116.0025253}, {"name": "Mirima", "type": "park", "lat": -15.7708707, "lng": 128.7516754}, {"name": "Purnululu", "type": "park", "lat": -17.5297517, "lng": 128.4008378}, {"name": "Tuart Forest", "type": "park", "lat": -33.5547952, "lng": 115.5144431}, {"name": "Tuart Forest", "type": "park", "lat": -33.5547952, "lng": 115.5144431}, {"name": "Shannon", "type": "park", "lat": -37.8154826, "lng": 144.9602371}, {"name": "Mount Frankland", "type": "park", "lat": -34.8197962, "lng": 116.755341}, {"name": "Mount Augustus", "type": "park", "lat": -24.325, "lng": 116.8416667}, {"name": "Lesueur", "type": "park", "lat": -30.1544192, "lng": 115.1198803}, {"name": "Francois Peron", "type": "park", "lat": -25.8203902, "lng": 113.5500047}, {"name": "Gloucester", "type": "park", "lat": -32.0233309, "lng": 151.95875}, {"name": "Kennedy Range", "type": "park", "lat": -24.6861112, "lng": 114.9516641}, {"name": "Goldfields Woodlands", "type": "park", "lat": -31.190464, "lng": 120.401635}, {"name": "Wellington", "type": "park", "lat": -32.5520391, "lng": 148.9492902}, {"name": "Mitchell River", "type": "park", "lat": -15.9803009, "lng": 142.5254049}, {"name": "Lawley River", "type": "park", "lat": -14.6658715, "lng": 125.8921895}, {"name": "Greater Dordagup", "type": "park", "lat": -34.5124639, "lng": 116.2836124}, {"name": "Greater Beedelup", "type": "park", "lat": -34.35163910000001, "lng": 115.9368428}, {"name": "Boorara-Gardner", "type": "park", "lat": -34.6987459, "lng": 116.1973284}, {"name": "Jane", "type": "park", "lat": -31.9533291, "lng": 115.8599399}, {"name": "Wiltshire-Butler", "type": "park", "lat": -34.0242465, "lng": 115.4852012}, {"name": "Hilliger", "type": "park", "lat": -33.7733744, "lng": 150.7106322}, {"name": "Greater Preston", "type": "park", "lat": -33.5613622, "lng": 116.2547366}, {"name": "Greater Kingston", "type": "park", "lat": -34.0903655, "lng": 116.4783981}, {"name": "Yelverton", "type": "park", "lat": -33.7502149, "lng": 115.1126248}, {"name": "Forest Grove", "type": "park", "lat": -34.0723477, "lng": 115.1068885}, {"name": "Easter", "type": "park", "lat": -33.7319981, "lng": 150.9753854}, {"name": "Greater Hawke", "type": "park", "lat": -34.518038, "lng": 115.8707401}, {"name": "Dalgarup", "type": "park", "lat": -33.985091, "lng": 115.9767688}, {"name": "Lake Muir", "type": "park", "lat": -34.5108333, "lng": 116.6747222}, {"name": "Whicher", "type": "park", "lat": -33.8, "lng": 115.3666667}, {"name": "Mount Frankland North", "type": "park", "lat": -34.8197962, "lng": 116.755341}, {"name": "Mount Frankland South", "type": "park", "lat": -34.8197962, "lng": 116.755341}, {"name": "Mount Roe", "type": "park", "lat": -34.6966667, "lng": 116.7925}, {"name": "Mount Lindesay", "type": "park", "lat": -34.8129362, "lng": 117.3471412}, {"name": "Bramley", "type": "park", "lat": -33.9158191, "lng": 115.0826069}, {"name": "Dirk Hartog Island", "type": "park", "lat": -25.8024022, "lng": 113.0250269}], "AT": [{"name": "Historic Centre of the City of Salzburg", "type": "unesco", "lat": 47.80055556, "lng": 13.04333333}, {"name": "Semmering Railway", "type": "unesco", "lat": 47.64877778, "lng": 15.82797222}, {"name": "Palace and Gardens of Schönbrunn", "type": "unesco", "lat": 48.18666667, "lng": 16.31333333}, {"name": "Hallstatt-Dachstein / Salzkammergut Cultural Landscape", "type": "unesco", "lat": 47.55944444, "lng": 13.64638889}, {"name": "City of Graz – Historic Centre and Schloss Eggenberg", "type": "unesco", "lat": 47.0741666667, "lng": 15.3916666667}, {"name": "Wachau Cultural Landscape", "type": "unesco", "lat": 48.36444444, "lng": 15.43416667}, {"name": "Historic Centre of Vienna", "type": "unesco", "lat": 48.21666667, "lng": 16.38333333}, {"name": "Nationalpark Hohe Tauern - Kernzone", "type": "park", "lat": 47.0004342, "lng": 12.5408376}, {"name": "Naturzone Illmitz", "type": "park", "lat": 47.7709214, "lng": 16.8014057}, {"name": "Hanság - Waasen", "type": "park", "lat": 47.77547999999999, "lng": 17.03243}, {"name": "Naturzone Podersdorf", "type": "park", "lat": 47.8544248, "lng": 16.837116}, {"name": "Naturzone Sandegg-Neudegg", "type": "park", "lat": 48.4875799, "lng": 15.88245}, {"name": "Nationalpark Hohe Tauern - Sonderschutzgebiet Großglockner Pasterze", "type": "park", "lat": 47.0004342, "lng": 12.5408376}, {"name": "Nationalpark Hohe Tauern - Sonderschutzgebiet Gamsgrube", "type": "park", "lat": 47.0004342, "lng": 12.5408376}, {"name": "Nationalpark Hohe Tauern - Außenzone", "type": "park", "lat": 47.0004342, "lng": 12.5408376}, {"name": "Nationalpark Gesäuse", "type": "park", "lat": 47.5652076, "lng": 14.5891132}, {"name": "Thayatal", "type": "park", "lat": 48.8444708, "lng": 15.8600631}, {"name": "Kernzone", "type": "park", "lat": 46.9525633, "lng": 15.889722}, {"name": "Aussenzone", "type": "park", "lat": 48.2081743, "lng": 16.3738189}, {"name": "Nationalpark Hohe Tauern Kernzone", "type": "park", "lat": 47.0004342, "lng": 12.5408376}, {"name": "Nationalpark Hohe Tauern Aussenzone", "type": "park", "lat": 47.0004342, "lng": 12.5408376}, {"name": "Nationalpark Kalkalpen", "type": "park", "lat": 47.7824299, "lng": 14.3843263}, {"name": "Bewahrungszone Karmazik", "type": "park", "lat": 47.7709214, "lng": 16.8014057}, {"name": "Bewahrungszone Illmitz-Höllle", "type": "park", "lat": 47.7709214, "lng": 16.8014057}, {"name": "Zitzmannsdorfer Wiesen, Lange Lacke, Sandegg", "type": "park", "lat": 47.7621413, "lng": 16.8698058}, {"name": "Außenzone Verwaltung, Eingang Np-Haus", "type": "park", "lat": 47.5652076, "lng": 14.5891132}, {"name": "Außenzone Schifffahrt, Donau", "type": "park", "lat": 48.4027831, "lng": 15.5883099}, {"name": "Außenzone Grundwasserwerk, Alter Kreuzgrund", "type": "park", "lat": 48.162116, "lng": 16.5267099}, {"name": "Naturzone, Angelmais/Erlmias", "type": "park", "lat": 33.992331, "lng": -118.4222133}, {"name": "Nationalpark Gesäuse", "type": "park", "lat": 47.5652076, "lng": 14.5891132}, {"name": "Donau-Auen", "type": "park", "lat": 48.1447917, "lng": 16.7003093}], "AZ": [{"name": "Walled City of Baku with the Shirvanshah's Palace and Maiden Tower", "type": "unesco", "lat": 40.36666667, "lng": 49.83333333}, {"name": "Gobustan Rock Art Cultural Landscape", "type": "unesco", "lat": 40.125, "lng": 49.375}, {"name": "Goygol National Park", "type": "park", "lat": 40.4129331, "lng": 46.3296857}, {"name": "Zangazur National Park", "type": "park", "lat": 39.0024812, "lng": 46.0671223}, {"name": "Shahdagh National Park", "type": "park", "lat": 40.9586665, "lng": 48.0585137}, {"name": "National Gizilaghaj Park", "type": "park", "lat": 40.2966821, "lng": 50.3488317}, {"name": "Shirvan National Park", "type": "park", "lat": 39.5711327, "lng": 49.1151869}, {"name": "Hirkan National Park", "type": "park", "lat": 38.4742521, "lng": 48.6927919}, {"name": "Aghgol National Park", "type": "park", "lat": 40.0147388, "lng": 47.702618}, {"name": "Altiaghaj National Park", "type": "park", "lat": 40.8762849, "lng": 49.0273549}], "BH": [{"name": "Qal’at al-Bahrain – Ancient Harbour and Capital of Dilmun", "type": "unesco", "lat": 26.23306, "lng": 50.5272222222}, {"name": "Pearling, Testimony of an Island Economy", "type": "unesco", "lat": 26.24128, "lng": 50.61351}], "BD": [{"name": "Historic Mosque City of Bagerhat", "type": "unesco", "lat": 22.66667, "lng": 89.8}, {"name": "Ruins of the Buddhist Vihara at Paharpur", "type": "unesco", "lat": 25.03333333, "lng": 88.98333333}, {"name": "The Sundarbans", "type": "unesco", "lat": 21.95, "lng": 89.18333}, {"name": "Altadighi", "type": "park", "lat": 25.1852778, "lng": 88.8661111}, {"name": "Birganj", "type": "park", "lat": 25.8934484, "lng": 88.6723578}, {"name": "Himchari", "type": "park", "lat": 21.349663, "lng": 92.0420152}, {"name": "Kadigarh", "type": "park", "lat": 24.3367675, "lng": 90.3254317}, {"name": "Kaptai", "type": "park", "lat": 22.4943822, "lng": 92.2212071}, {"name": "Bhawal", "type": "park", "lat": 24.0006785, "lng": 90.4254248}, {"name": "Baroiyadhala", "type": "park", "lat": 22.6530154, "lng": 91.66149469999999}, {"name": "Khadimnagar", "type": "park", "lat": 24.9752182, "lng": 91.900155}, {"name": "Lawachara", "type": "park", "lat": 24.3414031, "lng": 91.7977647}, {"name": "Madhupur", "type": "park", "lat": 24.6118636, "lng": 90.0314865}, {"name": "Medhakachhapia", "type": "park", "lat": 23.684994, "lng": 90.356331}, {"name": "Nababganj", "type": "park", "lat": 24.7413111, "lng": 88.29120689999999}, {"name": "Ramsagar", "type": "park", "lat": 25.5547884, "lng": 88.6211873}, {"name": "Satchari", "type": "park", "lat": 24.1246454, "lng": 91.4445892}, {"name": "Singra", "type": "park", "lat": 24.4742657, "lng": 89.1324866}, {"name": "Inoni National Park\n", "type": "park", "lat": 24.0902047, "lng": 90.4073129}], "BB": [{"name": "Historic Bridgetown and its Garrison", "type": "unesco", "lat": 13.0966666667, "lng": -59.6138888889}, {"name": "Farley Hill", "type": "park", "lat": 13.2644444, "lng": -59.59527780000001}], "BY": [{"name": "Mir Castle Complex", "type": "unesco", "lat": 53.45108333, "lng": 26.47272222}, {"name": "Architectural, Residential and Cultural Complex of the Radziwill Family at Nesvizh", "type": "unesco", "lat": 53.22278, "lng": 26.69139}, {"name": "Prypyatskiy", "type": "park", "lat": 52.1392851, "lng": 26.8887125}, {"name": "Braslavskie Ozera", "type": "park", "lat": 55.61528569999999, "lng": 27.0725573}, {"name": "Belowezskaya Pushcha", "type": "park", "lat": 52.5693876, "lng": 23.8029788}], "BE": [{"name": "Flemish Béguinages", "type": "unesco", "lat": 51.03097222, "lng": 4.47375}, {"name": "The Four Lifts on the Canal du Centre and their Environs, La Louvière and Le Roeulx (Hainaut)", "type": "unesco", "lat": 50.48111, "lng": 4.13722}, {"name": "La Grand-Place, Brussels", "type": "unesco", "lat": 50.84668, "lng": 4.35242}, {"name": "Historic Centre of Brugge", "type": "unesco", "lat": 51.20891, "lng": 3.22527}, {"name": "Major Town Houses of the Architect Victor Horta (Brussels)", "type": "unesco", "lat": 50.82806, "lng": 4.36223}, {"name": "Neolithic Flint Mines at Spiennes (Mons)", "type": "unesco", "lat": 50.43077, "lng": 3.97879}, {"name": "Notre-Dame Cathedral in Tournai", "type": "unesco", "lat": 50.60603, "lng": 3.38926}, {"name": "Plantin-Moretus House-Workshops-Museum Complex", "type": "unesco", "lat": 51.21833, "lng": 4.39778}, {"name": "Stoclet House", "type": "unesco", "lat": 50.835, "lng": 4.4161111111}, {"name": "Major Mining Sites of Wallonia", "type": "unesco", "lat": 50.4352777778, "lng": 3.8383333333}], "BZ": [{"name": "Belize Barrier Reef Reserve System", "type": "unesco", "lat": 16.75, "lng": -87.05833333}, {"name": "Mayflower Bocawina", "type": "park", "lat": 16.9325517, "lng": -88.3830165}, {"name": "Honey Camp", "type": "park", "lat": 18.0333333, "lng": -88.4333333}, {"name": "Rio Blanco", "type": "park", "lat": 16.2288893, "lng": -89.0936672}, {"name": "Peccary Hills", "type": "park", "lat": 17.3448098, "lng": -88.3820815}, {"name": "St. Herman's Blue Hole", "type": "park", "lat": 17.1470875, "lng": -88.6747675}, {"name": "Billy Barquedier", "type": "park", "lat": 17.0066573, "lng": -88.4382747}, {"name": "Monkey Bay", "type": "park", "lat": 17.2770526, "lng": -88.6810426}, {"name": "Five Blues Lake", "type": "park", "lat": 17.1293744, "lng": -88.59321349999999}, {"name": "Paynes Creek", "type": "park", "lat": 16.3301659, "lng": -88.6022378}, {"name": "Temash-Sarstoon", "type": "park", "lat": 15.8895259, "lng": -88.9306108}, {"name": "Aguas Turbias", "type": "park", "lat": 17.1514199, "lng": -89.0699633}, {"name": "Chiquibul", "type": "park", "lat": 16.8560689, "lng": -88.7930497}, {"name": "Guanacaste", "type": "park", "lat": 17.2633658, "lng": -88.7863658}, {"name": "Melinda", "type": "park", "lat": 17.5006605, "lng": -88.1870692}, {"name": "Nojkaaxmeen Eligio Panti", "type": "park", "lat": 17.0623233, "lng": -89.02783869999999}], "BJ": [{"name": "Royal Palaces of Abomey", "type": "unesco", "lat": 7.183333333, "lng": 1.983333333}, {"name": "Boucle de la Pendjari", "type": "park", "lat": 11.2481125, "lng": 1.5983959}, {"name": "W (Benin)", "type": "park", "lat": 9.30769, "lng": 2.315834}], "BO": [{"name": "City of Potosí", "type": "unesco", "lat": -19.58361, "lng": -65.75306}, {"name": "Jesuit Missions of the Chiquitos", "type": "unesco", "lat": -16, "lng": -60.5}, {"name": "Historic City of Sucre", "type": "unesco", "lat": -19.04306, "lng": -65.25917}, {"name": "Tiwanaku: Spiritual and Political Centre of the Tiwanaku Culture", "type": "unesco", "lat": -16.55833333, "lng": -68.67778}, {"name": "Fuerte de Samaipata", "type": "unesco", "lat": -18.16666667, "lng": -63.81666667}, {"name": "Noel Kempff Mercado National Park", "type": "unesco", "lat": -14.26667, "lng": -60.86667}, {"name": "Carrasco", "type": "park", "lat": -17.2284239, "lng": -64.9068492}, {"name": "Tunari", "type": "park", "lat": -17.2861724, "lng": -66.39335539999999}, {"name": "Santa Cruz la Vieja", "type": "park", "lat": -17.8713742, "lng": -60.7484477}, {"name": "Noel Kempff Mercado", "type": "park", "lat": -14.3691647, "lng": -60.8540141}, {"name": "Toro Toro", "type": "park", "lat": -18.13666, "lng": -65.758873}, {"name": "Amboró", "type": "park", "lat": -17.616667, "lng": -63.616667}, {"name": "Sajama", "type": "park", "lat": -18.2055303, "lng": -68.5818408}, {"name": "Isiboro Securé", "type": "park", "lat": -16.4065654, "lng": -66.0463534}, {"name": "Tuni Condoriri", "type": "park", "lat": -16.1712363, "lng": -68.230505}, {"name": "Mirikiri", "type": "park", "lat": -16.9333333, "lng": -68.5333333}, {"name": "Yura", "type": "park", "lat": -20.043221, "lng": -66.170822}, {"name": "Llica", "type": "park", "lat": -19.85105, "lng": -68.24896749999999}, {"name": "Santa Cruz La Vieja", "type": "park", "lat": -17.8713742, "lng": -60.7484477}, {"name": "Las Barrancas", "type": "park", "lat": -21.507039, "lng": -64.7466176}, {"name": "Madidi", "type": "park", "lat": -14.189209, "lng": -68.3339275}, {"name": "Otuquis", "type": "park", "lat": -19.2766412, "lng": -58.75910870000001}], "BA": [{"name": "Old Bridge Area of the Old City of Mostar", "type": "unesco", "lat": 43.34812, "lng": 17.81092}, {"name": "Mehmed Paša Sokolovi? Bridge in Višegrad", "type": "unesco", "lat": 43.7814444444, "lng": 19.288025}, {"name": "Np Una", "type": "park", "lat": 44.492024, "lng": 16.139834}, {"name": "Kozara", "type": "park", "lat": 45, "lng": 17}, {"name": "Sutjeska", "type": "park", "lat": 43.3167442, "lng": 18.6666595}, {"name": "Drina", "type": "park", "lat": 44.01574979999999, "lng": 19.2401933}], "BW": [{"name": "Tsodilo", "type": "unesco", "lat": -18.75, "lng": 21.73333333}, {"name": "Okavango Delta", "type": "unesco", "lat": -19.2833333333, "lng": 22.9}, {"name": "Chobe", "type": "park", "lat": -18.4256281, "lng": 24.7142918}, {"name": "Nxai Pan", "type": "park", "lat": -19.8934748, "lng": 24.7499112}, {"name": "Gemsbok", "type": "park", "lat": -26.4724121, "lng": 20.6117036}, {"name": "Makgadikgadi Pans", "type": "park", "lat": -20.7913528, "lng": 25.4733554}], "BR": [{"name": "Historic Town of Ouro Preto", "type": "unesco", "lat": -20.38888889, "lng": -43.50555556}, {"name": "Historic Centre of the Town of Olinda", "type": "unesco", "lat": -8.013333333, "lng": -34.845}, {"name": "Historic Centre of Salvador de Bahia", "type": "unesco", "lat": -12.96666667, "lng": -38.5}, {"name": "Sanctuary of Bom Jesus do Congonhas", "type": "unesco", "lat": -20.49972222, "lng": -43.85777778}, {"name": "Iguaçu National Park", "type": "unesco", "lat": -25.68333, "lng": -54.43333}, {"name": "Brasilia", "type": "unesco", "lat": -15.78333, "lng": -47.9}, {"name": "Serra da Capivara National Park", "type": "unesco", "lat": -8.416666667, "lng": -42.33333333}, {"name": "Historic Centre of São Luís", "type": "unesco", "lat": -2.514166667, "lng": -44.3025}, {"name": "Historic Centre of the Town of Diamantina", "type": "unesco", "lat": -18.23333333, "lng": -43.6}, {"name": "Discovery Coast Atlantic Forest Reserves", "type": "unesco", "lat": -16.5, "lng": -39.25}, {"name": "Atlantic Forest South-East Reserves", "type": "unesco", "lat": -24.16667, "lng": -48}, {"name": "Historic Centre of the Town of Goiás", "type": "unesco", "lat": -15.93328, "lng": -50.13336}, {"name": "Central Amazon Conservation Complex", "type": "unesco", "lat": -2.333333333, "lng": -62.00833333}, {"name": "Pantanal Conservation Area", "type": "unesco", "lat": -17.71667, "lng": -57.38333}, {"name": "Brazilian Atlantic Islands: Fernando de Noronha and Atol das Rocas Reserves", "type": "unesco", "lat": -3.857944444, "lng": -32.42511111}, {"name": "Cerrado Protected Areas: Chapada dos Veadeiros and Emas National Parks", "type": "unesco", "lat": -14.00569444, "lng": -47.68461111}, {"name": "Rio de Janeiro: Carioca Landscapes between the Mountain and the Sea", "type": "unesco", "lat": -22.9477777778, "lng": -43.2913888889}, {"name": "São Francisco Square in the Town of São Cristóvão", "type": "unesco", "lat": -11.0161111111, "lng": -37.21}, {"name": "Pampulha Modern Ensemble", "type": "unesco", "lat": -19.8519444444, "lng": -43.9736111111}, {"name": "Parque Nacional Da Serra Da Capivara", "type": "park", "lat": -8.6952778, "lng": -42.5862674}, {"name": "Parque Nacional Da Furna Feia", "type": "park", "lat": -5.0543143, "lng": -37.511069}, {"name": "Parque Nacional Montanhas Do Tumucumaque", "type": "park", "lat": 1.9630606, "lng": -52.9462658}, {"name": "Parque Nacional Da Serra De Itabaiana", "type": "park", "lat": -10.7691011, "lng": -37.3369173}, {"name": "Parque Nacional Grande Sertão Veredas", "type": "park", "lat": -15.0841979, "lng": -45.8375742}, {"name": "Parque Nacional Da Chapada Das Mesas", "type": "park", "lat": -7.1524703, "lng": -47.1446868}, {"name": "Parque Nacional Guaricana", "type": "park", "lat": -25.7127968, "lng": -48.8609825}, {"name": "Parque Nacional Viruá", "type": "park", "lat": 1.2907824, "lng": -61.15255639999999}, {"name": "Parque Nacional Da Tijuca", "type": "park", "lat": -22.956406, "lng": -43.28017639999999}, {"name": "Parque Nacional De Aparados Da Serra", "type": "park", "lat": -29.1775788, "lng": -50.1065467}, {"name": "Parque Nacional Do Iguaçu", "type": "park", "lat": -25.460508, "lng": -53.8177841}, {"name": "Parque Nacional Do Pantanal Matogrossense", "type": "park", "lat": -17.6557865, "lng": -57.4325973}, {"name": "Parque Nacional Da Chapada Dos Guimarães", "type": "park", "lat": -15.4053588, "lng": -55.8294699}, {"name": "Parque Nacional Do Catimbau", "type": "park", "lat": -8.592594000000002, "lng": -37.247526}, {"name": "Parque Nacional Da Serra Geral", "type": "park", "lat": -29.13416999999999, "lng": -49.99466}, {"name": "Parque Nacional Das Araucárias", "type": "park", "lat": -26.7994978, "lng": -51.990687}, {"name": "Parque Nacional De Ilha Grande", "type": "park", "lat": -23.7277473, "lng": -54.01944719999999}, {"name": "Parque Nacional Dos Campos Ferruginosos", "type": "park", "lat": -6.2601295, "lng": -49.9717125}, {"name": "Parque Nacional Pau Brasil", "type": "park", "lat": -16.4984801, "lng": -39.2557482}, {"name": "Parque Nacional Da Serra Das Lontras", "type": "park", "lat": -15.1646399, "lng": -39.3457316}, {"name": "Parque Nacional Da Serra Do Gandarela", "type": "park", "lat": -20.1008464, "lng": -43.6640298}, {"name": "Parque Nacional Da Serra Da Bodoquena", "type": "park", "lat": -21.0898753, "lng": -56.6850587}, {"name": "Parque Nacional Dos Campos Amazônicos", "type": "park", "lat": -8.3815659, "lng": -61.28067900000001}, {"name": "Parque Nacional Da Lagoa Do Peixe", "type": "park", "lat": -31.25331, "lng": -50.97107}, {"name": "Parque Nacional Do Itatiaia", "type": "park", "lat": -22.3698218, "lng": -44.6284689}, {"name": "Parque Nacional Da Serra Da Cutia", "type": "park", "lat": -11.658657, "lng": -64.3849029}, {"name": "Parque Nacional Restinga De Jurubatiba", "type": "park", "lat": -22.2044949, "lng": -41.5003411}, {"name": "Parque Nacional Do Pico Da Neblina", "type": "park", "lat": 0.3524895, "lng": -65.9069248}, {"name": "Parque Nacional Da Serra Dos Orgãos", "type": "park", "lat": -22.4881482, "lng": -43.0669208}, {"name": "Parque Nacional Do Jamanxim", "type": "park", "lat": -5.695100099999999, "lng": -55.80674510000001}, {"name": "Parque Nacional De Pacaás Novos", "type": "park", "lat": -11.1333746, "lng": -63.33451760000001}, {"name": "Parque Nacional Serra Da Mocidade", "type": "park", "lat": 1.0747715, "lng": -61.9749457}, {"name": "Parque Nacional Dos Campos Gerais", "type": "park", "lat": -25.0308282, "lng": -50.05881180000001}, {"name": "Parque Nacional Das Emas", "type": "park", "lat": -18.1224329, "lng": -52.9084534}, {"name": "Parque Nacional Das Nascentes Do Rio Parnaiba", "type": "park", "lat": -9.9694334, "lng": -46.0121484}, {"name": "Parque Nacional Mapinguari", "type": "park", "lat": -8.6081267, "lng": -64.76365919999999}, {"name": "Parque Nacional Da Serra Do Pardo", "type": "park", "lat": -5.4801796, "lng": -52.98902409999999}, {"name": "Parque Nacional Da Serra Do Itajaí", "type": "park", "lat": -27.1092722, "lng": -49.1853181}, {"name": "Parque Nacional Da Serra Do Divisor", "type": "park", "lat": -8.3793834, "lng": -73.1821623}, {"name": "Parque Nacional Serra Das Confusões", "type": "park", "lat": -9.222837, "lng": -43.4898119}, {"name": "Parque Nacional Do Juruena", "type": "park", "lat": -11.0208809, "lng": -58.3875103}, {"name": "Parque Nacional De Ubajara", "type": "park", "lat": -3.8388004, "lng": -40.8981235}, {"name": "Parque Nacional De Caparao", "type": "park", "lat": -20.4195597, "lng": -41.8433836}, {"name": "Parque Nacional Do Monte Roraima", "type": "park", "lat": 5.161355599999999, "lng": -60.4080445}, {"name": "Parque Nacional Das Sempre Vivas", "type": "park", "lat": -18.2427594, "lng": -43.5966897}, {"name": "Parque Nacional Do Alto Cariri", "type": "park", "lat": -16.386153, "lng": -39.9857185}, {"name": "Parque Nacional De Saint-Hilaire/Lange", "type": "park", "lat": -25.8355257, "lng": -48.5409587}, {"name": "Parque Nacional Dos Lençois Maranhenses", "type": "park", "lat": -2.4859385, "lng": -43.128407}, {"name": "Parque Nacional Da Serra Da Canastra", "type": "park", "lat": -20.2317518, "lng": -46.4457788}, {"name": "Parque Nacional Da Chapada Dos Veadeiros", "type": "park", "lat": -14.0388664, "lng": -47.6229713}, {"name": "Parque Nacional Do Monte Pascoal", "type": "park", "lat": -16.8926746, "lng": -39.2167384}, {"name": "Parque Nacional Da Serra Da Bocaina", "type": "park", "lat": -22.9415666, "lng": -44.6623181}, {"name": "Parque Nacional Da Chapada Diamantina", "type": "park", "lat": -12.579738, "lng": -41.7007272}, {"name": "Parque Nacional Da Serra Do Cipó", "type": "park", "lat": -19.3496172, "lng": -43.6182954}, {"name": "Parque Nacional De Brasília", "type": "park", "lat": -15.7390693, "lng": -47.9260617}, {"name": "Parque Nacional Do Rio Novo", "type": "park", "lat": -7.753502500000001, "lng": -56.1782491}, {"name": "Parque Nacional Cavernas Do Peruaçu", "type": "park", "lat": -15.1105494, "lng": -44.2443981}, {"name": "Parque Nacional De São Joaquim", "type": "park", "lat": -28.1816033, "lng": -49.5145443}, {"name": "Parque Nacional Do Araguaia", "type": "park", "lat": -10.5576341, "lng": -50.1650815}, {"name": "Parque Nacional Do Superagui", "type": "park", "lat": -25.3471088, "lng": -48.203517}, {"name": "Parque Nacional Da Amazônia", "type": "park", "lat": -4.3789679, "lng": -56.78034700000001}, {"name": "Parque Nacional Do Descobrimento", "type": "park", "lat": -17.0851729, "lng": -39.302864}, {"name": "Parque Nacional Do Boqueirão Da Onça", "type": "park", "lat": -10.0451021, "lng": -41.7606472}], "BG": [{"name": "Boyana Church", "type": "unesco", "lat": 42.65, "lng": 23.26666667}, {"name": "Madara Rider", "type": "unesco", "lat": 43.3, "lng": 27.15}, {"name": "Thracian Tomb of Kazanlak", "type": "unesco", "lat": 42.61666667, "lng": 25.4}, {"name": "Rock-Hewn Churches of Ivanovo", "type": "unesco", "lat": 43.71666667, "lng": 25.96666667}, {"name": "Rila Monastery", "type": "unesco", "lat": 42.11666667, "lng": 23.4}, {"name": "Ancient City of Nessebar", "type": "unesco", "lat": 42.65611, "lng": 27.73}, {"name": "Srebarna Nature Reserve", "type": "unesco", "lat": 44.11444, "lng": 27.07806}, {"name": "Pirin National Park", "type": "unesco", "lat": 41.7427222222, "lng": 23.4304722222}, {"name": "Thracian Tomb of Sveshtari", "type": "unesco", "lat": 43.66667, "lng": 26.66667}, {"name": "Rila", "type": "park", "lat": 42.1256751, "lng": 23.1315864}, {"name": "Centralen Balkan", "type": "park", "lat": 42.71121429999999, "lng": 24.7612179}, {"name": "Pirin", "type": "park", "lat": 41.6209029, "lng": 23.5503915}], "BF": [{"name": "Ruins of Loropéni", "type": "unesco", "lat": 10.25, "lng": -3.5833333333}, {"name": "Pô dit Kaboré Tambi", "type": "park", "lat": 11.5668974, "lng": -1.4048249}, {"name": "W du Burkina Faso", "type": "park", "lat": 12.238333, "lng": -1.561593}, {"name": "Arly", "type": "park", "lat": 11.5495248, "lng": 1.4526146}], "CV": [{"name": "Cidade Velha, Historic Centre of Ribeira Grande", "type": "unesco", "lat": 14.9151388889, "lng": -23.6051944444}], "KH": [{"name": "Angkor", "type": "unesco", "lat": 13.43333333, "lng": 103.8333333}, {"name": "Temple of Preah Vihear", "type": "unesco", "lat": 14.3883333333, "lng": 104.6838888889}, {"name": "Preah Suramarit - Kossamak", "type": "park", "lat": 11.321403, "lng": 104.053676}, {"name": "Preah Monivong \"Bokor\"", "type": "park", "lat": 10.6422226, "lng": 104.0273743}, {"name": "Botum Sakor", "type": "park", "lat": 11.1883046, "lng": 103.4685183}, {"name": "Virajay", "type": "park", "lat": 11.5737468, "lng": 104.9211855}, {"name": "Kep", "type": "park", "lat": 10.536089, "lng": 104.3559158}, {"name": "Preah Jayavaraman-Norodom \"Phnom Kulen\"", "type": "park", "lat": 13.6436414, "lng": 104.1466046}, {"name": "Central Kravanh", "type": "park", "lat": 12.1779742, "lng": 103.8216261}, {"name": "Ou Ya Dav", "type": "park", "lat": 13.6696342, "lng": 107.346448}, {"name": "Southern Kravanh", "type": "park", "lat": 11.5573132, "lng": 104.9333331}, {"name": "Veun Sai-Siem Pang", "type": "park", "lat": 14.2222359, "lng": 106.6125544}, {"name": "Elettaria cardamomum Genetic Conservation", "type": "park", "lat": 11.5613855, "lng": 104.9227008}], "CM": [{"name": "Dja Faunal Reserve", "type": "unesco", "lat": 3, "lng": 13}, {"name": "Kimbi-Fungom", "type": "park", "lat": 6.5377909, "lng": 10.196471}, {"name": "Mbam et Djerem", "type": "park", "lat": 5.8375898, "lng": 12.7135121}, {"name": "Lobéké", "type": "park", "lat": 2.292747, "lng": 15.6881788}, {"name": "Bénoué", "type": "park", "lat": 9.104225699999999, "lng": 13.7289167}, {"name": "Bouba Ndjida", "type": "park", "lat": 8.6421064, "lng": 14.5655273}, {"name": "Faro", "type": "park", "lat": 8.0990848, "lng": 12.989615}, {"name": "Takamanda", "type": "park", "lat": 6.05, "lng": 9.283332999999999}, {"name": "Kalamaloué", "type": "park", "lat": 12.1459244, "lng": 14.8732738}, {"name": "Mozogo Gokoro", "type": "park", "lat": 10.9628096, "lng": 13.9260001}, {"name": "Boumba Bek", "type": "park", "lat": 2.9182767, "lng": 14.7520939}, {"name": "Vallée du Mbéré", "type": "park", "lat": 7.0453676, "lng": 14.8688126}, {"name": "Nki", "type": "park", "lat": 2.4580836, "lng": 14.5655273}, {"name": "Bakossi", "type": "park", "lat": 7.369721999999999, "lng": 12.354722}, {"name": "Kom", "type": "park", "lat": 6.629348299999999, "lng": 10.9312575}, {"name": "Mefou", "type": "park", "lat": 3.6261021, "lng": 11.580885}, {"name": "Tchabal Mbabo", "type": "park", "lat": 7.266666699999999, "lng": 12.15}, {"name": "Deng Deng", "type": "park", "lat": 5.1891964, "lng": 13.5263398}, {"name": "Mont Cameroun", "type": "park", "lat": 4.217399299999999, "lng": 9.1727477}, {"name": "Mpem et Djim", "type": "park", "lat": 5.1586035, "lng": 11.7523854}, {"name": "Korup", "type": "park", "lat": 5.285737699999999, "lng": 9.0571089}, {"name": "Waza", "type": "park", "lat": 11.3983642, "lng": 14.5684406}, {"name": "Campo-Ma'an", "type": "park", "lat": 2.653013, "lng": 10.5296115}], "CA": [{"name": "L’Anse aux Meadows National Historic Site", "type": "unesco", "lat": 51.46666667, "lng": -55.61666667}, {"name": "Nahanni National Park", "type": "unesco", "lat": 61.54722222, "lng": -125.5894444}, {"name": "Dinosaur Provincial Park", "type": "unesco", "lat": 50.76777778, "lng": -111.4922222}, {"name": "S<U>G</U>ang Gwaay", "type": "unesco", "lat": 52.095, "lng": -131.2202778}, {"name": "Head-Smashed-In Buffalo Jump", "type": "unesco", "lat": 49.74944444, "lng": -113.6238889}, {"name": "Wood Buffalo National Park", "type": "unesco", "lat": 59.35833333, "lng": -112.2933333}, {"name": "Historic District of Old Québec", "type": "unesco", "lat": 46.80944444, "lng": -71.21055556}, {"name": "Canadian Rocky Mountain Parks", "type": "unesco", "lat": 51.42472222, "lng": -116.4797222}, {"name": "Gros Morne National Park", "type": "unesco", "lat": 49.6125, "lng": -57.53138889}, {"name": "Miguasha National Park", "type": "unesco", "lat": 48.105, "lng": -66.35305556}, {"name": "Old Town Lunenburg", "type": "unesco", "lat": 44.37611111, "lng": -64.30916667}, {"name": "Rideau Canal", "type": "unesco", "lat": 44.9943861111, "lng": -75.765125}, {"name": "Joggins Fossil Cliffs", "type": "unesco", "lat": 45.7097222222, "lng": -64.4358333333}, {"name": "Landscape of Grand Pré", "type": "unesco", "lat": 45.1183333333, "lng": -64.3072222222}, {"name": "Red Bay Basque Whaling Station", "type": "unesco", "lat": 51.726925, "lng": -56.4295222222}, {"name": "Mistaken Point", "type": "unesco", "lat": 46.635, "lng": -53.2111111111}, {"name": "Kouchibouguac National Park Of Canada", "type": "park", "lat": 46.81033910000001, "lng": -64.9611539}, {"name": "Kouchibouguac National Park Of Canada", "type": "park", "lat": 46.81033910000001, "lng": -64.9611539}, {"name": "La Mauricie National Park Of Canada", "type": "park", "lat": 46.7696859, "lng": -72.9522173}, {"name": "Akami-Uapishku - Kakkasuak - Mealy Mountains National Park Reserve Of Canada", "type": "park", "lat": 53.5722647, "lng": -58.3476971}, {"name": "Mingan Archipelago National Park Reserve Of Canada", "type": "park", "lat": 50.2205446, "lng": -63.6242162}, {"name": "Mount Revelstoke National Park Of Canada", "type": "park", "lat": 51.0926042, "lng": -118.0422245}, {"name": "Nahanni National Park Reserve Of Canada", "type": "park", "lat": 61.50069730000001, "lng": -125.5004694}, {"name": "Nááts'ihch'oh National Park Reserve Of Canada", "type": "park", "lat": 62.6706, "lng": -128.5439001}, {"name": "Pacific Rim National Park Reserve Of Canada", "type": "park", "lat": 48.79193129999999, "lng": -125.156359}, {"name": "Pacific Rim National Park Reserve Of Canada", "type": "park", "lat": 48.79193129999999, "lng": -125.156359}, {"name": "Thousand Islands National Park Of Canada", "type": "park", "lat": 44.4534142, "lng": -75.8609153}, {"name": "Terra Nova National Park Of Canada", "type": "park", "lat": 48.5252647, "lng": -53.9655172}, {"name": "Thaidene Nene National Park Reserve Of Canada", "type": "park", "lat": 62.40549399999999, "lng": -110.736935}, {"name": "Torngat Mountains National Park Of Canada", "type": "park", "lat": 59.22460509999999, "lng": -63.99337480000001}, {"name": "Ivvavik National Park Of Canada", "type": "park", "lat": 69.094186, "lng": -139.833984}, {"name": "Jasper National Park Of Canada", "type": "park", "lat": 52.8694052, "lng": -118.0759927}, {"name": "Aulavik National Park Of Canada", "type": "park", "lat": 73.7482485, "lng": -119.590888}, {"name": "Banff National Park Of Canada", "type": "park", "lat": 51.17839720000001, "lng": -115.5708074}, {"name": "Bruce Peninsula National Park Of Canada", "type": "park", "lat": 45.2254695, "lng": -81.5249606}, {"name": "Cape Breton Highlands National Park Of Canada", "type": "park", "lat": 46.749861, "lng": -60.59825}, {"name": "Kejimkujik National Park And National Historic Site Of Canada", "type": "park", "lat": 44.435209, "lng": -65.213655}, {"name": "Elk Island National Park Of Canada", "type": "park", "lat": 53.60762459999999, "lng": -112.8619477}, {"name": "Forillon National Park Of Canada", "type": "park", "lat": 48.8904803, "lng": -64.355503}, {"name": "Forillon National Park Of Canada", "type": "park", "lat": 48.8904803, "lng": -64.355503}, {"name": "Fundy National Park Of Canada", "type": "park", "lat": 45.6137768, "lng": -65.0316309}, {"name": "Georgian Bay Islands National Park Of Canada", "type": "park", "lat": 44.8743165, "lng": -79.8699554}, {"name": "Glacier National Park Of Canada", "type": "park", "lat": 51.335289, "lng": -117.5297595}, {"name": "Kejimkujik National Park And National Historic Site Of Canada", "type": "park", "lat": 44.435209, "lng": -65.213655}, {"name": "Kluane National Park Reserve Of Canada", "type": "park", "lat": 60.75, "lng": -139.5}, {"name": "Kootenay National Park Of Canada", "type": "park", "lat": 50.9769367, "lng": -115.9592102}, {"name": "Grasslands National Park Of Canada", "type": "park", "lat": 49.1509402, "lng": -107.5097378}, {"name": "Gros Morne National Park Of Canada", "type": "park", "lat": 49.59388879999999, "lng": -57.78388880000001}, {"name": "Point Pelee National Park Of Canada", "type": "park", "lat": 41.96277200000001, "lng": -82.51844}, {"name": "Prince Albert National Park Of Canada", "type": "park", "lat": 53.9228886, "lng": -106.0831486}, {"name": "Prince Edward Island National Park Of Canada", "type": "park", "lat": 46.4264571, "lng": -63.1739469}, {"name": "Pukaskwa National Park Of Canada", "type": "park", "lat": 48.5930342, "lng": -86.2933777}, {"name": "Quttinirpaaq National Park Of Canada", "type": "park", "lat": 81.4672471, "lng": -72.1090828}, {"name": "Riding Mountain National Park Of Canada", "type": "park", "lat": 50.6583616, "lng": -99.9712948}, {"name": "Saoyú-Ɂehdacho National Historic Site Of Canada", "type": "park", "lat": 66.1015079, "lng": -122.1507737}, {"name": "Sirmilik National Park Of Canada", "type": "park", "lat": 73.0737535, "lng": -79.7820558}, {"name": "Tuktut Nogait National Park Of Canada", "type": "park", "lat": 68.818748, "lng": -121.748991}, {"name": "Vuntut National Park Of Canada", "type": "park", "lat": 68.38494399999999, "lng": -139.8580332}, {"name": "Wapusk National Park Of Canada", "type": "park", "lat": 57.79385079999999, "lng": -93.2290221}, {"name": "Waterton Lakes National Park Of Canada", "type": "park", "lat": 49.0833333, "lng": -113.9166667}, {"name": "Wood Buffalo National Park Of Canada", "type": "park", "lat": 59.4395031, "lng": -112.8764021}, {"name": "Wood Buffalo National Park Of Canada", "type": "park", "lat": 59.4395031, "lng": -112.8764021}, {"name": "Yoho National Park Of Canada", "type": "park", "lat": 51.4666667, "lng": -116.5833333}], "CF": [{"name": "Manovo-Gounda St Floris National Park", "type": "unesco", "lat": 9, "lng": 21.5}, {"name": "Mbaéré-Bodingué", "type": "park", "lat": 6.611110999999999, "lng": 20.939444}, {"name": "Dzanga-Ndoki", "type": "park", "lat": 3.4368607, "lng": 16.3463791}, {"name": "Manovo-Gounda-Saint Floris", "type": "park", "lat": 8.460902899999999, "lng": 21.766}, {"name": "Andre Felix", "type": "park", "lat": 9.4945649, "lng": 23.3335542}, {"name": "Bamingui-Bangoran", "type": "park", "lat": 8.2733455, "lng": 20.7122465}], "TD": [{"name": "Lakes of Ounianga", "type": "unesco", "lat": 19.055, "lng": 20.5055555556}, {"name": "Ennedi Massif: Natural and Cultural Landscape", "type": "unesco", "lat": 17.0416666667, "lng": 21.8627777778}, {"name": "Manda", "type": "park", "lat": 9.383462399999999, "lng": 18.0005933}, {"name": "Sena Oura", "type": "park", "lat": 9.0934401, "lng": 14.5917572}, {"name": "Zakouma", "type": "park", "lat": 10.8375, "lng": 19.6555556},