{"CN": [{"name": "Shanghai", "pop": 24874500, "lat": "31.2222200", "lng": "121.4580600"}, {"name": "Beijing", "pop": 18960744, "lat": "39.9075000", "lng": "116.3972300"}, {"name": "Shenzhen", "pop": 17494398, "lat": "22.5455400", "lng": "114.0683000"}, {"name": "Guangzhou", "pop": 16096724, "lat": "23.1166700", "lng": "113.2500000"}, {"name": "Chengdu", "pop": 13568357, "lat": "30.6666700", "lng": "104.0666700"}, {"name": "Tianjin", "pop": 11090314, "lat": "39.1422200", "lng": "117.1766700"}, {"name": "Wuhan", "pop": 10392693, "lat": "30.5833300", "lng": "114.2666700"}, {"name": "Dongguan", "pop": 9644871, "lat": "23.0179700", "lng": "113.7486600"}, {"name": "Xi’an", "pop": 9600000, "lat": "34.2583300", "lng": "108.9286100"}, {"name": "Nanjing", "pop": 9314685, "lat": "32.0616700", "lng": "118.7777800"}, {"name": "Hangzhou", "pop": 9236032, "lat": "30.2936500", "lng": "120.1614200"}, {"name": "Foshan", "pop": 9042509, "lat": "23.0267700", "lng": "113.1314800"}, {"name": "Chongqing", "pop": 7457599, "lat": "29.5602600", "lng": "106.5577100"}, {"name": "Qingdao", "pop": 7172451, "lat": "36.0648800", "lng": "120.3804200"}, {"name": "Shenyang", "pop": 7050000, "lat": "41.7922200", "lng": "123.4327800"}, {"name": "Suzhou", "pop": 6715559, "lat": "31.3040800", "lng": "120.5953800"}, {"name": "Harbin", "pop": 5242897, "lat": "45.7500000", "lng": "126.6500000"}, {"name": "Hefei", "pop": 5050000, "lat": "31.8638900", "lng": "117.2808300"}, {"name": "Dalian", "pop": 4913879, "lat": "38.9122200", "lng": "121.6022200"}, {"name": "Changchun", "pop": 4714996, "lat": "43.8800000", "lng": "125.3227800"}, {"name": "Xiamen", "pop": 4617251, "lat": "24.4797900", "lng": "118.0818700"}, {"name": "Bao'an", "pop": 4476554, "lat": "22.5521300", "lng": "113.8828800"}, {"name": "Wuxi", "pop": 4396835, "lat": "31.5688700", "lng": "120.2885700"}, {"name": "Jinan", "pop": 4335989, "lat": "36.6683300", "lng": "116.9972200"}, {"name": "Taiyuan", "pop": 4303673, "lat": "37.8694400", "lng": "112.5602800"}, {"name": "Zhengzhou", "pop": 4253913, "lat": "34.7577800", "lng": "113.6486100"}, {"name": "Shijiazhuang", "pop": 3938513, "lat": "38.0413900", "lng": "114.4786100"}, {"name": "Kunming", "pop": 3855346, "lat": "25.0388900", "lng": "102.7183300"}, {"name": "Zhongshan", "pop": 3841873, "lat": "22.5230600", "lng": "113.3791200"}, {"name": "Nanning", "pop": 3839800, "lat": "22.8166700", "lng": "108.3166700"}, {"name": "Shantou", "pop": 3838900, "lat": "23.3548900", "lng": "116.6787600"}, {"name": "Fuzhou", "pop": 3740000, "lat": "26.0613900", "lng": "119.3061100"}, {"name": "Ningbo", "pop": 3731203, "lat": "29.8781900", "lng": "121.5494500"}, {"name": "Puyang", "pop": 3590000, "lat": "29.4567900", "lng": "119.8887200"}, {"name": "Shiyan", "pop": 3460000, "lat": "32.6475000", "lng": "110.7780600"}, {"name": "Tangshan", "pop": 3372102, "lat": "39.6438100", "lng": "118.1831900"}, {"name": "Lüliang", "pop": 3346500, "lat": "37.5192000", "lng": "111.1443600"}, {"name": "Changzhou", "pop": 3290918, "lat": "31.7735900", "lng": "119.9540100"}, {"name": "Zibo", "pop": 3129228, "lat": "36.7905600", "lng": "118.0633300"}, {"name": "Changsha", "pop": 3093980, "lat": "28.1987400", "lng": "112.9708700"}, {"name": "Guiyang", "pop": 3037159, "lat": "26.5833300", "lng": "106.7166700"}, {"name": "Ürümqi", "pop": 3029372, "lat": "43.8009600", "lng": "87.6004600"}, {"name": "Lanzhou", "pop": 3000000, "lat": "36.0570100", "lng": "103.8398700"}, {"name": "Huizhou", "pop": 2900113, "lat": "23.1114700", "lng": "114.4152300"}, {"name": "Haikou", "pop": 2873358, "lat": "20.0342100", "lng": "110.3465100"}, {"name": "Linyi", "pop": 2743843, "lat": "35.0630600", "lng": "118.3427800"}, {"name": "Baoding", "pop": 2739887, "lat": "38.8728800", "lng": "115.4624600"}, {"name": "Wenzhou", "pop": 2650000, "lat": "27.9994200", "lng": "120.6668200"}, {"name": "Yunfu", "pop": 2612800, "lat": "22.9278700", "lng": "112.0380900"}, {"name": "Huai'an", "pop": 2494013, "lat": "33.5886100", "lng": "119.0191700"}, {"name": "Nanchang", "pop": 2357839, "lat": "28.6839600", "lng": "115.8530600"}, {"name": "Hohhot", "pop": 2350000, "lat": "40.8105600", "lng": "111.6522200"}, {"name": "Shaoxing", "pop": 2300000, "lat": "30.0023700", "lng": "120.5786400"}, {"name": "Nantong", "pop": 2273326, "lat": "32.0302800", "lng": "120.8747200"}, {"name": "Yantai", "pop": 2227733, "lat": "37.4764900", "lng": "121.4408100"}, {"name": "Zhuhai", "pop": 2207090, "lat": "22.2769400", "lng": "113.5677800"}, {"name": "Baotou", "pop": 2150000, "lat": "40.6516000", "lng": "109.8438900"}, {"name": "Qingyang", "pop": 2125400, "lat": "35.7097600", "lng": "107.6445500"}, {"name": "Kunshan", "pop": 2092496, "lat": "31.3776200", "lng": "120.9543100"}, {"name": "Weifang", "pop": 2044028, "lat": "36.7100000", "lng": "119.1019400"}, {"name": "Zunyi", "pop": 2037775, "lat": "27.6866700", "lng": "106.9072200"}, {"name": "Lianyungang", "pop": 2001009, "lat": "34.5984500", "lng": "119.2155600"}, {"name": "Ganzhou", "pop": 1977253, "lat": "25.8466400", "lng": "114.9326000"}, {"name": "Ordos", "pop": 1940653, "lat": "39.6086000", "lng": "109.7815700"}, {"name": "Jieyang", "pop": 1899394, "lat": "23.5418000", "lng": "116.3658100"}, {"name": "Jilin", "pop": 1895865, "lat": "43.8465200", "lng": "126.5608000"}, {"name": "Nanchong", "pop": 1858875, "lat": "30.7950800", "lng": "106.0847300"}, {"name": "Datong", "pop": 1850000, "lat": "40.0936100", "lng": "113.2913900"}, {"name": "Nanyang", "pop": 1811812, "lat": "32.9947200", "lng": "112.5327800"}, {"name": "Jiangmen", "pop": 1795459, "lat": "22.5833300", "lng": "113.0833300"}, {"name": "Jiangyin", "pop": 1779515, "lat": "31.9110200", "lng": "120.2630200"}, {"name": "Fuyang", "pop": 1768947, "lat": "32.9000000", "lng": "115.8166700"}, {"name": "Bayan Nur", "pop": 1760000, "lat": "40.7414300", "lng": "107.3859900"}, {"name": "Chaozhou", "pop": 1750945, "lat": "23.6539600", "lng": "116.6226200"}, {"name": "Qingyuan", "pop": 1738424, "lat": "23.7000000", "lng": "113.0333300"}, {"name": "Tai’an", "pop": 1735425, "lat": "36.1852800", "lng": "117.1200000"}, {"name": "Xining", "pop": 1677177, "lat": "36.6255400", "lng": "101.7573900"}, {"name": "Changshu", "pop": 1677050, "lat": "31.6461500", "lng": "120.7422100"}, {"name": "Huainan", "pop": 1666826, "lat": "32.6263900", "lng": "116.9969400"}, {"name": "Suzhou", "pop": 1647642, "lat": "33.6361100", "lng": "116.9788900"}, {"name": "Lu’an", "pop": 1644344, "lat": "31.7356100", "lng": "116.5168800"}, {"name": "Yancheng", "pop": 1615717, "lat": "33.3575000", "lng": "120.1573000"}, {"name": "Taizhou", "pop": 1607108, "lat": "32.4906900", "lng": "119.9081200"}, {"name": "Daqing", "pop": 1604027, "lat": "46.5833300", "lng": "125.0000000"}, {"name": "Wuhu", "pop": 1598165, "lat": "31.3525900", "lng": "118.4294700"}, {"name": "Dazhou", "pop": 1589435, "lat": "31.2106000", "lng": "107.4630800"}, {"name": "Yangzhou", "pop": 1584237, "lat": "32.3972200", "lng": "119.4358300"}, {"name": "Guilin", "pop": 1572300, "lat": "25.2802200", "lng": "110.2963900"}, {"name": "Zhaoqing", "pop": 1553109, "lat": "23.0489300", "lng": "112.4609100"}, {"name": "Mianyang", "pop": 1550000, "lat": "31.4678400", "lng": "104.6816800"}, {"name": "Wanzhou", "pop": 1545900, "lat": "30.7645100", "lng": "108.3958600"}, {"name": "Putian", "pop": 1539389, "lat": "25.4394400", "lng": "119.0102800"}, {"name": "Shangqiu", "pop": 1536392, "lat": "34.4500000", "lng": "115.6500000"}, {"name": "Yinchuan", "pop": 1487579, "lat": "38.4680600", "lng": "106.2730600"}, {"name": "Taizhou", "pop": 1485502, "lat": "28.6626600", "lng": "121.4331200"}, {"name": "Yiwu", "pop": 1481384, "lat": "29.3150600", "lng": "120.0767600"}, {"name": "Quanzhou", "pop": 1469157, "lat": "24.9138900", "lng": "118.5858300"}, {"name": "Jinhua", "pop": 1463990, "lat": "29.1067800", "lng": "119.6442100"}, {"name": "Cixi", "pop": 1457510, "lat": "30.1764000", "lng": "121.2457000"}, {"name": "Changde", "pop": 1457419, "lat": "29.0320500", "lng": "111.6984400"}, {"name": "Kaifeng", "pop": 1451741, "lat": "34.7986000", "lng": "114.3074200"}, {"name": "Anshan", "pop": 1450000, "lat": "41.1236100", "lng": "122.9900000"}, {"name": "Baoji", "pop": 1437802, "lat": "34.3677500", "lng": "107.2370500"}, {"name": "Suqian", "pop": 1437685, "lat": "33.9491700", "lng": "118.2958300"}, {"name": "Liuzhou", "pop": 1436599, "lat": "24.3240500", "lng": "109.4069800"}, {"name": "Zhangjiagang", "pop": 1432044, "lat": "31.8650000", "lng": "120.5388900"}, {"name": "Jinjiang", "pop": 1416151, "lat": "24.8197800", "lng": "118.5741500"}, {"name": "Bozhou", "pop": 1409436, "lat": "33.8772200", "lng": "115.7702800"}, {"name": "Qujing", "pop": 1408500, "lat": "25.4833300", "lng": "103.7833300"}, {"name": "Zhanjiang", "pop": 1400709, "lat": "21.2339100", "lng": "110.3874900"}, {"name": "Fushun", "pop": 1400646, "lat": "41.8866900", "lng": "123.9436300"}, {"name": "Luoyang", "pop": 1390581, "lat": "34.6734500", "lng": "112.4368400"}, {"name": "Guankou", "pop": 1380000, "lat": "28.1586100", "lng": "113.6270900"}, {"name": "Handan", "pop": 1358318, "lat": "36.6099900", "lng": "114.4876400"}, {"name": "Yichang", "pop": 1350150, "lat": "30.7144400", "lng": "111.2847200"}, {"name": "Heze", "pop": 1346717, "lat": "35.2392900", "lng": "115.4735800"}, {"name": "Liupanshui", "pop": 1320825, "lat": "26.5944400", "lng": "104.8333300"}, {"name": "Maoming", "pop": 1307802, "lat": "21.6662500", "lng": "110.9136400"}, {"name": "Qinzhou", "pop": 1296300, "lat": "21.9824700", "lng": "108.6506100"}, {"name": "Luohe", "pop": 1294974, "lat": "33.5639400", "lng": "114.0427200"}, {"name": "Xiangyang", "pop": 1294733, "lat": "32.0422000", "lng": "112.1447900"}, {"name": "Yangjiang", "pop": 1292987, "lat": "21.8556300", "lng": "111.9627200"}, {"name": "Yixing", "pop": 1285785, "lat": "31.3605900", "lng": "119.8201600"}, {"name": "Xuchang", "pop": 1265536, "lat": "34.0318900", "lng": "113.8629900"}, {"name": "Zigong", "pop": 1262064, "lat": "29.3416200", "lng": "104.7768900"}, {"name": "Xuzhou", "pop": 1253991, "lat": "34.2044200", "lng": "117.2838600"}, {"name": "Neijiang", "pop": 1251095, "lat": "29.5835400", "lng": "105.0621600"}, {"name": "Heshan", "pop": 1249807, "lat": "28.5693800", "lng": "112.3473300"}, {"name": "Jining", "pop": 1241012, "lat": "35.4050000", "lng": "116.5813900"}, {"name": "Xinyang", "pop": 1230042, "lat": "32.1227800", "lng": "114.0655600"}, {"name": "Liaocheng", "pop": 1229768, "lat": "36.4506400", "lng": "116.0024700"}, {"name": "Jinzhong", "pop": 1226617, "lat": "37.6840300", "lng": "112.7547100"}, {"name": "Changzhi", "pop": 1214940, "lat": "36.1838900", "lng": "113.1052800"}, {"name": "Tianshui", "pop": 1212791, "lat": "34.5795200", "lng": "105.7423800"}, {"name": "Weinan", "pop": 1199290, "lat": "34.5035500", "lng": "109.5089100"}, {"name": "Jiaxing", "pop": 1180000, "lat": "30.7522000", "lng": "120.7500000"}, {"name": "Jiujiang", "pop": 1164268, "lat": "29.7047500", "lng": "116.0020600"}, {"name": "Anyang", "pop": 1146839, "lat": "36.0960000", "lng": "114.3827800"}, {"name": "Bijie", "pop": 1137383, "lat": "27.3019300", "lng": "105.2862700"}, {"name": "Zhuzhou", "pop": 1129687, "lat": "27.8333300", "lng": "113.1500000"}, {"name": "Shangrao", "pop": 1116486, "lat": "28.4517900", "lng": "117.9428700"}, {"name": "Huaibei", "pop": 1113321, "lat": "33.9744400", "lng": "116.7916700"}, {"name": "Meishan", "pop": 1107742, "lat": "30.0439200", "lng": "103.8369600"}, {"name": "Fuzhou", "pop": 1089888, "lat": "27.9599900", "lng": "116.3333300"}, {"name": "Guigang", "pop": 1086327, "lat": "23.1160300", "lng": "109.5947200"}, {"name": "Hengyang", "pop": 1075516, "lat": "26.8894600", "lng": "112.6188800"}, {"name": "Yulin", "pop": 1056743, "lat": "22.6305000", "lng": "110.1468600"}, {"name": "Jingzhou", "pop": 1052282, "lat": "30.3502800", "lng": "112.1902800"}, {"name": "Xinxiang", "pop": 1047088, "lat": "35.1903300", "lng": "113.8015100"}, {"name": "Yichun", "pop": 1045952, "lat": "27.8333300", "lng": "114.4000000"}, {"name": "Xianyang", "pop": 1034081, "lat": "34.3377800", "lng": "108.7026100"}, {"name": "Sanya", "pop": 1031396, "lat": "18.2543500", "lng": "109.5094700"}, {"name": "Shaoguan", "pop": 1028460, "lat": "24.8000000", "lng": "113.5833300"}, {"name": "Longyan", "pop": 1025087, "lat": "25.0748500", "lng": "117.0177500"}, {"name": "Yongzhou", "pop": 1020715, "lat": "26.4238900", "lng": "111.6130600"}, {"name": "Huzhou", "pop": 1015937, "lat": "30.8703000", "lng": "120.0933000"}, {"name": "Wuwei", "pop": 1010295, "lat": "37.9267200", "lng": "102.6320200"}, {"name": "Hanzhong", "pop": 1006557, "lat": "33.0750700", "lng": "107.0221400"}, {"name": "Hezhou", "pop": 1005490, "lat": "24.4035700", "lng": "111.5667500"}, {"name": "Zhu Cheng City", "pop": 1000000, "lat": "35.9950200", "lng": "119.4025900"}, {"name": "Dongying", "pop": 998968, "lat": "37.4627100", "lng": "118.4916500"}, {"name": "Luzhou", "pop": 998900, "lat": "28.8903000", "lng": "105.4257500"}, {"name": "Meizhou", "pop": 992351, "lat": "24.2885900", "lng": "116.1176800"}, {"name": "Yueyang", "pop": 991465, "lat": "29.3745500", "lng": "113.0948100"}, {"name": "Laiwu", "pop": 989535, "lat": "36.1927800", "lng": "117.6569400"}, {"name": "Benxi", "pop": 987717, "lat": "41.2886100", "lng": "123.7650000"}, {"name": "Pingdingshan", "pop": 979130, "lat": "33.7384700", "lng": "113.3011900"}, {"name": "Bengbu", "pop": 972784, "lat": "32.9408300", "lng": "117.3608300"}, {"name": "Xiangtan", "pop": 959303, "lat": "27.8500000", "lng": "112.9000000"}, {"name": "Linfen", "pop": 959198, "lat": "36.0888900", "lng": "111.5188900"}, {"name": "Zhenjiang", "pop": 950516, "lat": "32.2108600", "lng": "119.4550800"}, {"name": "Huludao", "pop": 944495, "lat": "40.7524300", "lng": "120.8355200"}, {"name": "Baoshan", "pop": 935618, "lat": "25.1162600", "lng": "99.1636600"}, {"name": "Rui’an", "pop": 927383, "lat": "27.7760500", "lng": "120.6585900"}, {"name": "Laibin", "pop": 910282, "lat": "23.7474300", "lng": "109.2222200"}, {"name": "Xiaogan", "pop": 908266, "lat": "30.9268900", "lng": "113.9222100"}, {"name": "Ziyang", "pop": 905729, "lat": "30.1210800", "lng": "104.6481100"}, {"name": "Quzhou", "pop": 902767, "lat": "28.9594400", "lng": "118.8686100"}, {"name": "Zaozhuang", "pop": 899753, "lat": "34.8647200", "lng": "117.5541700"}, {"name": "Pingxiang", "pop": 893550, "lat": "27.6167200", "lng": "113.8535300"}, {"name": "Zhoushan", "pop": 882932, "lat": "29.9886900", "lng": "122.2048800"}, {"name": "Qiqihar", "pop": 882364, "lat": "47.3392200", "lng": "123.9615400"}, {"name": "Puning", "pop": 874954, "lat": "23.3107200", "lng": "116.1686900"}, {"name": "Ankang", "pop": 870126, "lat": "32.6800000", "lng": "109.0172200"}, {"name": "Langfang", "pop": 868066, "lat": "39.5207900", "lng": "116.7147100"}, {"name": "Jiaozuo", "pop": 865413, "lat": "35.2392500", "lng": "113.2391400"}, {"name": "Wanxian", "pop": 859662, "lat": "30.8160100", "lng": "108.3740700"}, {"name": "Guang’an", "pop": 858159, "lat": "30.4741300", "lng": "106.6369600"}, {"name": "Weihai", "pop": 844310, "lat": "37.5091400", "lng": "122.1135600"}, {"name": "Xinyu", "pop": 839488, "lat": "27.8042900", "lng": "114.9333500"}, {"name": "Yibin", "pop": 836340, "lat": "28.7593000", "lng": "104.6399400"}, {"name": "Taicang", "pop": 831113, "lat": "31.4477800", "lng": "121.0938900"}, {"name": "Chenzhou", "pop": 822534, "lat": "25.8000000", "lng": "113.0333300"}, {"name": "Anqing", "pop": 804493, "lat": "30.5136500", "lng": "117.0472300"}, {"name": "Xingtai", "pop": 798770, "lat": "37.0621700", "lng": "114.4927200"}, {"name": "Zhaotong", "pop": 787845, "lat": "27.3166700", "lng": "103.7166700"}, {"name": "Panzhihua", "pop": 787177, "lat": "26.5850900", "lng": "101.7127600"}, {"name": "Chuzhou", "pop": 782671, "lat": "32.3219400", "lng": "118.2977800"}, {"name": "Xuancheng", "pop": 774332, "lat": "30.9525000", "lng": "118.7552800"}, {"name": "Shangyu", "pop": 770000, "lat": "30.0155600", "lng": "120.8711100"}, {"name": "Anshun", "pop": 765313, "lat": "26.2500000", "lng": "105.9333300"}, {"name": "Wuzhou", "pop": 761948, "lat": "23.4805400", "lng": "111.2884800"}, {"name": "Qinhuangdao", "pop": 759718, "lat": "39.9410400", "lng": "119.5893600"}, {"name": "Shaoyang", "pop": 753194, "lat": "27.2381800", "lng": "111.4621400"}, {"name": "Hegang", "pop": 743307, "lat": "47.3472700", "lng": "130.2903300"}, {"name": "Ma’anshan", "pop": 741531, "lat": "31.6857900", "lng": "118.5100800"}, {"name": "Shizuishan", "pop": 739400, "lat": "38.9808200", "lng": "106.3892000"}, {"name": "Deyang", "pop": 735070, "lat": "31.1301900", "lng": "104.3819800"}, {"name": "Yangquan", "pop": 731228, "lat": "37.8575000", "lng": "113.5633300"}, {"name": "Zhumadian", "pop": 721670, "lat": "32.9794400", "lng": "114.0294400"}, {"name": "Changzhi", "pop": 699514, "lat": "35.2088900", "lng": "111.7386100"}, {"name": "Zhangjiakou", "pop": 692602, "lat": "40.7834100", "lng": "114.8713900"}, {"name": "Fuxin", "pop": 689050, "lat": "42.0155600", "lng": "121.6588900"}, {"name": "Changsha", "pop": 688242, "lat": "22.3812400", "lng": "112.6849200"}, {"name": "Huangshi", "pop": 688090, "lat": "30.2470600", "lng": "115.0481400"}, {"name": "Liaoyang", "pop": 687890, "lat": "41.2719400", "lng": "123.1730600"}, {"name": "Baise", "pop": 686078, "lat": "23.8901300", "lng": "106.6268400"}, {"name": "Binzhou", "pop": 682717, "lat": "37.3666700", "lng": "118.0166700"}, {"name": "Yuncheng", "pop": 680036, "lat": "35.0230600", "lng": "110.9927800"}, {"name": "Dezhou", "pop": 679535, "lat": "37.4466100", "lng": "116.3670600"}, {"name": "Sanmenxia", "pop": 669307, "lat": "34.7808100", "lng": "111.1928700"}, {"name": "E’zhou", "pop": 668727, "lat": "30.3960700", "lng": "114.8865500"}, {"name": "Mudanjiang", "pop": 665915, "lat": "44.5480400", "lng": "129.6259400"}, {"name": "Leshan", "pop": 662814, "lat": "29.5622700", "lng": "103.7638600"}, {"name": "Rizhao", "pop": 661943, "lat": "35.4141400", "lng": "119.5290800"}, {"name": "Suining", "pop": 656760, "lat": "30.5080200", "lng": "105.5733200"}, {"name": "Puyang", "pop": 655674, "lat": "35.7564100", "lng": "115.0436300"}, {"name": "Hebi", "pop": 634721, "lat": "35.7323100", "lng": "114.2861600"}, {"name": "Jingmen", "pop": 632954, "lat": "31.0336100", "lng": "112.2047200"}, {"name": "Dandong", "pop": 631973, "lat": "40.1291700", "lng": "124.3947200"}, {"name": "Panshan", "pop": 625040, "lat": "41.1880600", "lng": "122.0494400"}, {"name": "Jiaozhou", "pop": 619266, "lat": "36.2838900", "lng": "120.0033300"}, {"name": "Suizhou", "pop": 618582, "lat": "31.7111100", "lng": "113.3630600"}, {"name": "Chizhou", "pop": 615274, "lat": "30.6613400", "lng": "117.4778300"}, {"name": "Ya'an", "pop": 612056, "lat": "29.9852100", "lng": "102.9990000"}, {"name": "Jinzhou", "pop": 604269, "lat": "41.1077800", "lng": "121.1416700"}, {"name": "Sanming", "pop": 602166, "lat": "26.2486100", "lng": "117.6186100"}, {"name": "Shuangyashan", "pop": 600000, "lat": "46.6768600", "lng": "131.1327300"}, {"name": "Luancheng", "pop": 597130, "lat": "37.8845200", "lng": "114.6462900"}, {"name": "Mengzi", "pop": 595100, "lat": "23.3677900", "lng": "103.3821200"}, {"name": "Yingkou", "pop": 591159, "lat": "40.6647200", "lng": "122.2317600"}, {"name": "Zhangzhou", "pop": 589831, "lat": "24.5133300", "lng": "117.6555600"}, {"name": "Shihezi", "pop": 572772, "lat": "44.3023000", "lng": "86.0369400"}, {"name": "Wenchang", "pop": 560894, "lat": "19.5515800", "lng": "110.8027900"}, {"name": "Siping", "pop": 555609, "lat": "43.1614300", "lng": "124.3778500"}, {"name": "Chuxiong", "pop": 555081, "lat": "25.0363900", "lng": "101.5455600"}, {"name": "Huaihua", "pop": 552622, "lat": "27.5633700", "lng": "110.0040400"}, {"name": "Ulanqab", "pop": 550231, "lat": "40.9930000", "lng": "113.1330000"}, {"name": "Jiamusi", "pop": 549549, "lat": "46.7971100", "lng": "130.3111800"}, {"name": "Korla", "pop": 549324, "lat": "41.7605500", "lng": "86.1523100"}, {"name": "Wanning", "pop": 545992, "lat": "18.7993100", "lng": "110.3841000"}, {"name": "Xinzhou", "pop": 544683, "lat": "38.4091700", "lng": "112.7333300"}, {"name": "Pingdu", "pop": 542234, "lat": "36.7844400", "lng": "119.9463900"}, {"name": "Ji’an", "pop": 538699, "lat": "27.1171600", "lng": "114.9792700"}, {"name": "Guli", "pop": 536000, "lat": "28.8816200", "lng": "120.0330800"}, {"name": "Aqsu", "pop": 535657, "lat": "41.1841800", "lng": "80.2792100"}, {"name": "Tanggu", "pop": 535298, "lat": "39.0211100", "lng": "117.6469400"}, {"name": "Shangluo", "pop": 531696, "lat": "33.8666700", "lng": "109.9305600"}, {"name": "Qionghai", "pop": 528238, "lat": "19.2425000", "lng": "110.4641700"}, {"name": "Cangzhou", "pop": 527681, "lat": "38.3112400", "lng": "116.8533400"}, {"name": "Beihai", "pop": 525329, "lat": "21.4834900", "lng": "109.1154900"}, {"name": "Hengshui", "pop": 522147, "lat": "37.7390800", "lng": "115.6834800"}, {"name": "Guangyuan", "pop": 516424, "lat": "32.4420100", "lng": "105.8230000"}, {"name": "Xianning", "pop": 512517, "lat": "29.8434700", "lng": "114.3220100"}, {"name": "Mianzhu, Deyang, Sichuan", "pop": 510000, "lat": "31.3378600", "lng": "104.2205700"}, {"name": "Tonghua", "pop": 510000, "lat": "41.7197200", "lng": "125.9263900"}, {"name": "Banan", "pop": 508703, "lat": "29.3786100", "lng": "106.5400000"}, {"name": "Zhangye", "pop": 507433, "lat": "38.9341700", "lng": "100.4516700"}, {"name": "Kashgar", "pop": 506640, "lat": "39.4671800", "lng": "75.9867500"}, {"name": "Zhoukou", "pop": 505171, "lat": "33.6333300", "lng": "114.6333300"}, {"name": "Pingliang", "pop": 504848, "lat": "35.5391700", "lng": "106.6861100"}, {"name": "Zhucheng", "pop": 499285, "lat": "35.9947200", "lng": "119.3975000"}, {"name": "Loudi", "pop": 497171, "lat": "27.7344400", "lng": "111.9944400"}, {"name": "Shanwei", "pop": 491766, "lat": "22.7819900", "lng": "115.3475000"}, {"name": "Jianshui", "pop": 490000, "lat": "24.2774000", "lng": "101.2240000"}, {"name": "Xichang", "pop": 481796, "lat": "27.8964200", "lng": "102.2634100"}, {"name": "Chéngguān Qū", "pop": 478275, "lat": "29.6384200", "lng": "91.0444100"}, {"name": "Jincheng", "pop": 476945, "lat": "35.5022200", "lng": "112.8327800"}, {"name": "Yan’an", "pop": 475234, "lat": "36.5988900", "lng": "109.4916700"}, {"name": "Shouguang", "pop": 473620, "lat": "36.8800000", "lng": "118.7375000"}, {"name": "Jingdezhen", "pop": 473561, "lat": "29.2947000", "lng": "117.2078900"}, {"name": "Nanping", "pop": 467875, "lat": "26.6450000", "lng": "118.1736100"}, {"name": "Longshan", "pop": 465249, "lat": "42.8854500", "lng": "125.1367000"}, {"name": "Heyuan", "pop": 463907, "lat": "23.7333300", "lng": "114.6833300"}, {"name": "Huangshan", "pop": 460786, "lat": "29.7113900", "lng": "118.3125000"}, {"name": "Lishui", "pop": 451418, "lat": "28.4604200", "lng": "119.9102900"}, {"name": "Wenshan City", "pop": 450000, "lat": "23.3630600", "lng": "104.2504700"}, {"name": "Chengde", "pop": 449325, "lat": "40.9519000", "lng": "117.9588300"}, {"name": "Basuo", "pop": 444458, "lat": "19.1026700", "lng": "108.6656500"}, {"name": "Zhangjiajie", "pop": 441804, "lat": "29.1294400", "lng": "110.4783300"}, {"name": "Bei’an", "pop": 436444, "lat": "48.2666700", "lng": "126.6000000"}, {"name": "Ningde", "pop": 429260, "lat": "26.6616700", "lng": "119.5227800"}, {"name": "Jiuquan", "pop": 428346, "lat": "39.7431800", "lng": "98.5173600"}, {"name": "Dingxi", "pop": 420614, "lat": "35.5708800", "lng": "104.6230300"}, {"name": "Tongchuan", "pop": 417740, "lat": "34.8988000", "lng": "108.9505600"}, {"name": "Guyuan", "pop": 411854, "lat": "36.0066700", "lng": "106.2808300"}, {"name": "Chaoyang", "pop": 410005, "lat": "41.5702800", "lng": "120.4586100"}, {"name": "Gujangbagh", "pop": 408894, "lat": "37.1092700", "lng": "79.9343300"}, {"name": "Jixi", "pop": 403759, "lat": "45.2932200", "lng": "130.9621700"}, {"name": "Tongling", "pop": 402062, "lat": "30.9500000", "lng": "117.7833300"}, {"name": "Gaomi", "pop": 391986, "lat": "36.3833300", "lng": "119.7527800"}, {"name": "Chongzuo", "pop": 384905, "lat": "22.3816100", "lng": "107.3683000"}, {"name": "Tanzhou", "pop": 382445, "lat": "22.2550300", "lng": "113.4669200"}, {"name": "Hechuan", "pop": 377213, "lat": "29.9922800", "lng": "106.2646100"}, {"name": "Xuanhua", "pop": 373422, "lat": "40.6120500", "lng": "115.0646300"}, {"name": "Fenghuang", "pop": 370000, "lat": "27.9355700", "lng": "109.5996100"}, {"name": "Huanggang", "pop": 366769, "lat": "30.4514300", "lng": "114.8703500"}, {"name": "Anqiu", "pop": 364208, "lat": "36.4341700", "lng": "119.1925000"}, {"name": "Jizhou", "pop": 362013, "lat": "37.5505400", "lng": "115.5687100"}, {"name": "Huocheng", "pop": 360000, "lat": "44.0530500", "lng": "80.8717300"}, {"name": "Lhoka", "pop": 353700, "lat": "29.2430100", "lng": "91.7723900"}, {"name": "Pengze", "pop": 350000, "lat": "29.8988500", "lng": "116.5457200"}, {"name": "Xilinhot", "pop": 349953, "lat": "43.9388900", "lng": "116.0702100"}, {"name": "Hulunbuir", "pop": 349400, "lat": "49.2114100", "lng": "119.7558200"}, {"name": "Daye", "pop": 347406, "lat": "30.0833300", "lng": "114.9500000"}, {"name": "Chifeng", "pop": 346654, "lat": "42.2683300", "lng": "118.9636100"}, {"name": "Yunlong", "pop": 345393, "lat": "34.2528100", "lng": "117.2516700"}, {"name": "Qitaihe", "pop": 345033, "lat": "45.7680000", "lng": "130.9953000"}, {"name": "Pizhou", "pop": 343421, "lat": "34.3113900", "lng": "117.9502800"}, {"name": "Laixi", "pop": 341470, "lat": "36.8591700", "lng": "120.5269400"}, {"name": "Tieling", "pop": 333907, "lat": "42.2930600", "lng": "123.8413900"}, {"name": "Hechi", "pop": 330131, "lat": "24.6928500", "lng": "108.0837600"}, {"name": "Tongshan", "pop": 329661, "lat": "34.1804500", "lng": "117.1570700"}, {"name": "Yanji", "pop": 326957, "lat": "42.8882500", "lng": "129.5024100"}, {"name": "Lincang", "pop": 323708, "lat": "23.8797200", "lng": "100.0945500"}, {"name": "Xingyi", "pop": 322890, "lat": "25.0961700", "lng": "104.9063900"}, {"name": "Tantou", "pop": 320304, "lat": "22.7512100", "lng": "113.8349600"}, {"name": "Baicheng", "pop": 316970, "lat": "45.6175100", "lng": "122.8330200"}, {"name": "Lianshan", "pop": 313247, "lat": "40.7643200", "lng": "120.8532700"}, {"name": "Changyi", "pop": 302072, "lat": "36.8536100", "lng": "119.3908300"}, {"name": "Xinyi", "pop": 300511, "lat": "34.3842400", "lng": "118.3461700"}, {"name": "Yangshuo", "pop": 300000, "lat": "24.7808100", "lng": "110.4896700"}, {"name": "Linqu", "pop": 299646, "lat": "36.5155600", "lng": "118.5397200"}, {"name": "Simao", "pop": 296565, "lat": "22.7886300", "lng": "100.9748100"}, {"name": "Baiyin", "pop": 294400, "lat": "36.5469600", "lng": "104.1702300"}, {"name": "Gaozhou", "pop": 292164, "lat": "21.9196500", "lng": "110.8567800"}, {"name": "Xiuying", "pop": 290000, "lat": "20.0007300", "lng": "110.2935900"}, {"name": "Dengzhou", "pop": 285032, "lat": "32.6822200", "lng": "112.0819400"}, {"name": "Artux", "pop": 285000, "lat": "39.7084200", "lng": "76.1797100"}, {"name": "Xinyuan", "pop": 282718, "lat": "43.4264900", "lng": "83.2495900"}, {"name": "Enshi", "pop": 279185, "lat": "30.3000000", "lng": "109.4833300"}, {"name": "Binhe", "pop": 278055, "lat": "32.6883300", "lng": "112.8275000"}, {"name": "Zoucheng", "pop": 277400, "lat": "35.4005600", "lng": "116.9655600"}, {"name": "Fangchenggang", "pop": 276315, "lat": "21.7694500", "lng": "108.3566100"}, {"name": "Kaili", "pop": 275745, "lat": "26.5858300", "lng": "107.9797200"}, {"name": "Xingning", "pop": 274499, "lat": "24.1483000", "lng": "115.7227200"}, {"name": "Linxia Chengguanzhen", "pop": 274466, "lat": "35.6002800", "lng": "103.2063900"}, {"name": "Turpan", "pop": 273385, "lat": "42.9476900", "lng": "89.1788600"}, {"name": "Longling County", "pop": 270000, "lat": "24.5866300", "lng": "98.6893400"}, {"name": "Ghulja", "pop": 269158, "lat": "43.9151500", "lng": "81.3215100"}, {"name": "Fuling", "pop": 268658, "lat": "29.7099700", "lng": "107.3939100"}, {"name": "Chengzhong", "pop": 265886, "lat": "30.9445400", "lng": "113.5528400"}, {"name": "Hulan Ergi", "pop": 265344, "lat": "47.2041700", "lng": "123.6333300"}, {"name": "Donghai", "pop": 264709, "lat": "22.9459300", "lng": "115.6420400"}, {"name": "Dongtai", "pop": 262873, "lat": "32.8523100", "lng": "120.3094700"}, {"name": "Karamay", "pop": 261445, "lat": "45.5847300", "lng": "84.8872400"}, {"name": "Tongliao", "pop": 261110, "lat": "43.6125000", "lng": "122.2652800"}, {"name": "Nianbo", "pop": 260184, "lat": "36.4800000", "lng": "102.4163900"}, {"name": "Aral", "pop": 260000, "lat": "40.5418400", "lng": "81.2656600"}, {"name": "Changle", "pop": 259161, "lat": "36.7058300", "lng": "118.8275000"}, {"name": "Jining", "pop": 258757, "lat": "41.0275000", "lng": "113.1058300"}, {"name": "Rugao", "pop": 257400, "lat": "32.3703500", "lng": "120.5764900"}, {"name": "Suicheng", "pop": 256665, "lat": "33.8963000", "lng": "117.9330700"}, {"name": "Nada", "pop": 256652, "lat": "19.5213400", "lng": "109.5789500"}, {"name": "Yanzhou", "pop": 254788, "lat": "35.5527800", "lng": "116.8286100"}, {"name": "Laohekou", "pop": 253112, "lat": "32.3858300", "lng": "111.6677800"}, {"name": "Suihua", "pop": 252245, "lat": "46.6481400", "lng": "126.9665600"}, {"name": "Wafangdian", "pop": 250591, "lat": "39.6183300", "lng": "122.0080600"}], "CD": [{"name": "Kinshasa", "pop": 16000000, "lat": "-4.3275800", "lng": "15.3135700"}, {"name": "Lubumbashi", "pop": 2221925, "lat": "-11.6608900", "lng": "27.4793800"}, {"name": "Mbuji-Mayi", "pop": 2101332, "lat": "-6.1360300", "lng": "23.5897900"}, {"name": "Kananga", "pop": 1247168, "lat": "-5.8962400", "lng": "22.4165900"}, {"name": "Kisangani", "pop": 1181788, "lat": "0.5152800", "lng": "25.1909900"}, {"name": "Bukavu", "pop": 816811, "lat": "-2.4907700", "lng": "28.8428100"}, {"name": "Kolwezi", "pop": 790248, "lat": "-10.7148400", "lng": "25.4667400"}, {"name": "Likasi", "pop": 635768, "lat": "-10.9830300", "lng": "26.7384000"}, {"name": "Tshikapa", "pop": 634529, "lat": "-6.4162100", "lng": "20.7999500"}, {"name": "Kikwit", "pop": 509367, "lat": "-5.0409800", "lng": "18.8161900"}, {"name": "Masina", "pop": 485167, "lat": "-4.3836100", "lng": "15.3913900"}, {"name": "Mbandaka", "pop": 455011, "lat": "0.0486500", "lng": "18.2603400"}, {"name": "Goma", "pop": 432587, "lat": "-1.6740900", "lng": "29.2284500"}, {"name": "Matadi", "pop": 425662, "lat": "-5.8386100", "lng": "13.4630600"}, {"name": "Uvira", "pop": 407092, "lat": "-3.3953400", "lng": "29.1377900"}, {"name": "Bunia", "pop": 399282, "lat": "1.5594100", "lng": "30.2522400"}, {"name": "Boma", "pop": 297009, "lat": "-5.8509800", "lng": "13.0536400"}, {"name": "Mwene", "pop": 295683, "lat": "-9.8169700", "lng": "22.8702300"}, {"name": "Butembo", "pop": 286242, "lat": "0.1416400", "lng": "29.2911700"}, {"name": "Isiro", "pop": 255409, "lat": "2.7739100", "lng": "27.6160300"}], "TR": [{"name": "Istanbul", "pop": 15701602, "lat": "41.0138400", "lng": "28.9496600"}, {"name": "Ankara", "pop": 3517182, "lat": "39.9198700", "lng": "32.8542700"}, {"name": "Bursa", "pop": 3101833, "lat": "40.1955900", "lng": "29.0601300"}, {"name": "İzmir", "pop": 2938292, "lat": "38.4127300", "lng": "27.1383800"}, {"name": "Gaziantep", "pop": 2130432, "lat": "37.0594400", "lng": "37.3825000"}, {"name": "Adana", "pop": 1816750, "lat": "36.9861500", "lng": "35.3253100"}, {"name": "Diyarbakır", "pop": 1791373, "lat": "37.9136300", "lng": "40.2172100"}, {"name": "Kayseri", "pop": 1434357, "lat": "38.7322200", "lng": "35.4852800"}, {"name": "Konya", "pop": 1433861, "lat": "37.8713500", "lng": "32.4846400"}, {"name": "Antalya", "pop": 1344000, "lat": "36.9081200", "lng": "30.6955600"}, {"name": "Malatya", "pop": 806156, "lat": "38.3501800", "lng": "38.3166700"}, {"name": "Çankaya", "pop": 792189, "lat": "39.9179000", "lng": "32.8626800"}, {"name": "Eskişehir", "pop": 789023, "lat": "39.7766700", "lng": "30.5205600"}, {"name": "Erzurum", "pop": 767848, "lat": "39.9086100", "lng": "41.2769400"}, {"name": "Bağcılar", "pop": 749024, "lat": "41.0390300", "lng": "28.8567100"}, {"name": "Bahçelievler", "pop": 576799, "lat": "41.0023100", "lng": "28.8598000"}, {"name": "Umraniye", "pop": 573265, "lat": "41.0164300", "lng": "29.1247600"}, {"name": "Mersin", "pop": 537842, "lat": "36.8119600", "lng": "34.6388600"}, {"name": "Van", "pop": 525016, "lat": "38.4945700", "lng": "43.3832300"}, {"name": "Üsküdar", "pop": 524452, "lat": "41.0227400", "lng": "29.0136600"}, {"name": "Esenler", "pop": 520235, "lat": "41.0435000", "lng": "28.8761900"}, {"name": "Karabağlar", "pop": 458000, "lat": "38.3820000", "lng": "27.1320000"}, {"name": "Batman", "pop": 452157, "lat": "37.8873800", "lng": "41.1322100"}, {"name": "Muratpaşa", "pop": 450000, "lat": "36.8915700", "lng": "30.7649800"}, {"name": "Şanlıurfa", "pop": 449549, "lat": "37.1670800", "lng": "38.7939200"}, {"name": "Elazığ", "pop": 443363, "lat": "38.6743100", "lng": "39.2232100"}, {"name": "Sultangazi", "pop": 436935, "lat": "41.1065200", "lng": "28.8684700"}, {"name": "Maltepe", "pop": 427040, "lat": "40.9356700", "lng": "29.1550700"}, {"name": "Samsun", "pop": 394050, "lat": "41.2797600", "lng": "36.3361000"}, {"name": "Kahramanmaraş", "pop": 384953, "lat": "37.5847000", "lng": "36.9264100"}, {"name": "Uşak", "pop": 369433, "lat": "38.6735100", "lng": "29.4058000"}, {"name": "Alanya", "pop": 364180, "lat": "36.5437500", "lng": "31.9998200"}, {"name": "Ataşehir", "pop": 361615, "lat": "40.9833000", "lng": "29.1167000"}, {"name": "Tarsus", "pop": 350732, "lat": "36.9176600", "lng": "34.8927700"}, {"name": "Şişli", "pop": 314684, "lat": "41.0604600", "lng": "28.9871700"}, {"name": "Denizli", "pop": 313238, "lat": "37.7741700", "lng": "29.0875000"}, {"name": "Zeytinburnu", "pop": 288743, "lat": "40.9944100", "lng": "28.9041700"}, {"name": "Adapazarı", "pop": 286787, "lat": "40.7805600", "lng": "30.4033300"}, {"name": "Sultanbeyli", "pop": 286622, "lat": "40.9607200", "lng": "29.2706700"}, {"name": "Gebze", "pop": 281436, "lat": "40.8027600", "lng": "29.4306800"}, {"name": "Merkezefendi", "pop": 280341, "lat": "37.8054400", "lng": "29.0423600"}, {"name": "Çorum", "pop": 269595, "lat": "40.5488900", "lng": "34.9533300"}, {"name": "Adıyaman", "pop": 267131, "lat": "37.7644100", "lng": "38.2762900"}, {"name": "Sivas", "pop": 264022, "lat": "39.7483300", "lng": "37.0161100"}, {"name": "Afyonkarahisar", "pop": 251799, "lat": "38.7566700", "lng": "30.5433300"}, {"name": "İskenderun", "pop": 251682, "lat": "36.5871800", "lng": "36.1734700"}], "NG": [{"name": "Lagos", "pop": 15388000, "lat": "6.4540700", "lng": "3.3946700"}, {"name": "Kano", "pop": 4910000, "lat": "12.0001200", "lng": "8.5167200"}, {"name": "Ibadan", "pop": 3649000, "lat": "7.3775600", "lng": "3.9059100"}, {"name": "Abuja", "pop": 2690000, "lat": "9.0578500", "lng": "7.4950800"}, {"name": "Port Harcourt", "pop": 2120000, "lat": "4.7774200", "lng": "7.0134000"}, {"name": "Kaduna", "pop": 1850000, "lat": "10.5264100", "lng": "7.4387900"}, {"name": "Benin City", "pop": 1782000, "lat": "6.3381500", "lng": "5.6257500"}, {"name": "Onitsha", "pop": 1553000, "lat": "6.1497800", "lng": "6.7856900"}, {"name": "Aba", "pop": 1160000, "lat": "5.1065800", "lng": "7.3666700"}, {"name": "Maiduguri", "pop": 1110000, "lat": "11.8469200", "lng": "13.1571200"}, {"name": "Ilorin", "pop": 1080000, "lat": "8.4966400", "lng": "4.5421400"}, {"name": "Jos", "pop": 1040000, "lat": "9.9284900", "lng": "8.8921200"}, {"name": "Sokoto", "pop": 1040000, "lat": "13.0626900", "lng": "5.2432200"}, {"name": "Zaria", "pop": 980000, "lat": "11.1112800", "lng": "7.7227000"}, {"name": "Enugu", "pop": 950000, "lat": "6.4413200", "lng": "7.4988300"}, {"name": "Warri", "pop": 910000, "lat": "5.5173700", "lng": "5.7500600"}, {"name": "Oyo", "pop": 736072, "lat": "7.8536700", "lng": "3.9323500"}, {"name": "Abeokuta", "pop": 735000, "lat": "7.1557100", "lng": "3.3450900"}, {"name": "Akure", "pop": 730000, "lat": "7.2525600", "lng": "5.1931200"}, {"name": "Bauchi", "pop": 693700, "lat": "10.3103200", "lng": "9.8438800"}, {"name": "Katsina", "pop": 670000, "lat": "12.9908200", "lng": "7.6017700"}, {"name": "Osogbo", "pop": 645000, "lat": "7.7710400", "lng": "4.5569800"}, {"name": "Gombe", "pop": 560000, "lat": "10.2896900", "lng": "11.1672900"}, {"name": "Ile-Ife", "pop": 560000, "lat": "7.4824000", "lng": "4.5603200"}, {"name": "Ajegunle", "pop": 550000, "lat": "6.4519700", "lng": "3.3311500"}, {"name": "Owerri", "pop": 545000, "lat": "5.4836300", "lng": "7.0332500"}, {"name": "Calabar", "pop": 540000, "lat": "4.9589300", "lng": "8.3269500"}, {"name": "Ebute Ikorodu", "pop": 535619, "lat": "6.6008600", "lng": "3.4881800"}, {"name": "Okene", "pop": 479178, "lat": "7.5512200", "lng": "6.2358900"}, {"name": "Ikare", "pop": 465000, "lat": "7.5259100", "lng": "5.7534200"}, {"name": "Yola", "pop": 460000, "lat": "9.2083900", "lng": "12.4814600"}, {"name": "Uyo", "pop": 436606, "lat": "5.0512700", "lng": "7.9335000"}, {"name": "Ado-Ekiti", "pop": 435000, "lat": "7.6232900", "lng": "5.2208700"}, {"name": "Ogbomoso", "pop": 433030, "lat": "8.1337300", "lng": "4.2401400"}, {"name": "Minna", "pop": 425000, "lat": "9.6152400", "lng": "6.5477600"}, {"name": "Lekki", "pop": 401272, "lat": "6.4122200", "lng": "4.0947000"}, {"name": "Bida", "pop": 400000, "lat": "9.0804400", "lng": "6.0099000"}, {"name": "Makurdi", "pop": 390000, "lat": "7.7337500", "lng": "8.5213900"}, {"name": "Ondo", "pop": 375000, "lat": "7.0931600", "lng": "4.8352800"}, {"name": "Umuahia", "pop": 370000, "lat": "5.5249100", "lng": "7.4946100"}, {"name": "Iseyin", "pop": 365300, "lat": "7.9702200", "lng": "3.5962600"}, {"name": "Gboko", "pop": 365000, "lat": "7.3227500", "lng": "9.0010800"}, {"name": "Yenagoa", "pop": 365000, "lat": "4.9267500", "lng": "6.2676400"}, {"name": "Ijebu Ode", "pop": 360000, "lat": "6.8194400", "lng": "3.9173100"}, {"name": "Obalende", "pop": 342000, "lat": "6.4469400", "lng": "3.4152800"}, {"name": "Ilesa", "pop": 325000, "lat": "7.6278900", "lng": "4.7416100"}, {"name": "Ikeja", "pop": 313196, "lat": "6.5965100", "lng": "3.3420500"}, {"name": "Akowonjo", "pop": 308900, "lat": "6.6101200", "lng": "3.3096800"}, {"name": "Alimosho", "pop": 308290, "lat": "6.6065600", "lng": "3.3023500"}, {"name": "Sapele", "pop": 305000, "lat": "5.8940500", "lng": "5.6766600"}, {"name": "Efon-Alaaye", "pop": 279319, "lat": "7.6564900", "lng": "4.9223500"}, {"name": "Owo", "pop": 276574, "lat": "7.1962000", "lng": "5.5868100"}, {"name": "Ikot Ekpene", "pop": 254806, "lat": "5.1819400", "lng": "7.7148100"}, {"name": "Iwo", "pop": 250443, "lat": "7.6352700", "lng": "4.1815600"}], "VN": [{"name": "Ho Chi Minh City", "pop": 14002598, "lat": "10.8230200", "lng": "106.6296500"}, {"name": "Hanoi", "pop": 8053663, "lat": "21.0245000", "lng": "105.8411700"}, {"name": "Haiphong", "pop": 2625200, "lat": "20.8648100", "lng": "106.6834500"}, {"name": "Cần Thơ", "pop": 1507187, "lat": "10.0371100", "lng": "105.7882500"}, {"name": "Huế", "pop": 1380000, "lat": "16.4619000", "lng": "107.5954600"}, {"name": "Da Nang", "pop": 1276000, "lat": "16.0677800", "lng": "108.2208300"}, {"name": "Biên Hòa", "pop": 1272235, "lat": "10.9446900", "lng": "106.8243200"}, {"name": "Thanh Hóa", "pop": 850000, "lat": "19.8000000", "lng": "105.7666700"}, {"name": "Vinh", "pop": 790000, "lat": "18.6733700", "lng": "105.6923200"}, {"name": "Thuận An", "pop": 588616, "lat": "10.9239000", "lng": "106.7142800"}, {"name": "Nha Trang", "pop": 579000, "lat": "12.2450700", "lng": "109.1943200"}, {"name": "Bình Thạnh", "pop": 552164, "lat": "10.8110000", "lng": "106.7060000"}, {"name": "Thủ Đức", "pop": 524670, "lat": "10.8486300", "lng": "106.7720900"}, {"name": "Qui Nhon", "pop": 519208, "lat": "13.7764800", "lng": "109.2236700"}, {"name": "Vũng Tàu", "pop": 464860, "lat": "10.3459900", "lng": "107.0842600"}, {"name": "Dĩ An", "pop": 463023, "lat": "10.9068200", "lng": "106.7694000"}, {"name": "Rạch Giá", "pop": 459860, "lat": "10.0124500", "lng": "105.0809100"}, {"name": "Bắc Giang", "pop": 450000, "lat": "21.2730700", "lng": "106.1946000"}, {"name": "Nam Định", "pop": 448225, "lat": "20.4338900", "lng": "106.1772900"}, {"name": "Buôn Ma Thuột", "pop": 434256, "lat": "12.6674700", "lng": "108.0377500"}, {"name": "Thái Nguyên", "pop": 420000, "lat": "21.5942200", "lng": "105.8481700"}, {"name": "Việt Trì", "pop": 415280, "lat": "21.3227400", "lng": "105.4019800"}, {"name": "Quận Mười", "pop": 399000, "lat": "10.7682300", "lng": "106.6663200"}, {"name": "Thủ Dầu Một", "pop": 373105, "lat": "10.9804000", "lng": "106.6519000"}, {"name": "Bến Cát", "pop": 364578, "lat": "11.1500000", "lng": "106.6000000"}, {"name": "Long Bien", "pop": 347829, "lat": "21.0333300", "lng": "105.9000000"}, {"name": "Bắc Từ Liêm", "pop": 340605, "lat": "21.0653200", "lng": "105.7466100"}, {"name": "Quận Mười Một", "pop": 332536, "lat": "10.7638300", "lng": "106.6435500"}, {"name": "Gia Lâm", "pop": 309353, "lat": "21.0535200", "lng": "106.0071200"}, {"name": "An Nhơn", "pop": 308396, "lat": "13.8857900", "lng": "109.1082300"}, {"name": "Hai Bà Trưng", "pop": 303586, "lat": "21.0134100", "lng": "105.8477200"}, {"name": "Nghi Sơn", "pop": 302210, "lat": "19.3274600", "lng": "105.8214500"}, {"name": "Phu Quoc", "pop": 294419, "lat": "10.2240900", "lng": "103.9715600"}, {"name": "Thanh Xuân", "pop": 293292, "lat": "20.9947200", "lng": "105.7997700"}, {"name": "Cầu Giấy", "pop": 292536, "lat": "21.0322800", "lng": "105.8007300"}, {"name": "Bắc Ninh", "pop": 287658, "lat": "21.1860800", "lng": "106.0763100"}, {"name": "Phú Mỹ", "pop": 287055, "lat": "10.6333300", "lng": "107.0666700"}, {"name": "Long Xuyên", "pop": 286140, "lat": "10.3863900", "lng": "105.4351800"}, {"name": "Quảng Ngãi", "pop": 278496, "lat": "15.1204700", "lng": "108.7923200"}, {"name": "Quận Sáu", "pop": 271050, "lat": "10.7468000", "lng": "106.6490300"}, {"name": "Mỹ Tho", "pop": 270700, "lat": "10.3600400", "lng": "106.3599600"}, {"name": "Hạ Long", "pop": 270054, "lat": "20.9504500", "lng": "107.0733600"}, {"name": "Ðà Lạt", "pop": 258014, "lat": "11.9464600", "lng": "108.4419300"}, {"name": "Xuân Lộc", "pop": 253140, "lat": "10.9333300", "lng": "107.2333300"}], "PK": [{"name": "Lahore", "pop": 13004135, "lat": "31.5580000", "lng": "74.3507100"}, {"name": "Karachi", "pop": 11624219, "lat": "24.8608000", "lng": "67.0104000"}, {"name": "Peshawar", "pop": 4758762, "lat": "34.0080000", "lng": "71.5784900"}, {"name": "Faisalabad", "pop": 3800193, "lat": "31.4155400", "lng": "73.0896900"}, {"name": "Rawalpindi", "pop": 3357612, "lat": "33.5973300", "lng": "73.0479000"}, {"name": "Gujranwala", "pop": 2511118, "lat": "32.1556700", "lng": "74.1870500"}, {"name": "Multan", "pop": 2169915, "lat": "30.1967900", "lng": "71.4782400"}, {"name": "Hyderabad", "pop": 1921275, "lat": "25.3968900", "lng": "68.3771800"}, {"name": "Quetta", "pop": 1565546, "lat": "30.1841400", "lng": "67.0014100"}, {"name": "Bannu", "pop": 1357890, "lat": "32.9852700", "lng": "70.6040300"}, {"name": "Sargodha", "pop": 975886, "lat": "32.0858600", "lng": "72.6741800"}, {"name": "Sialkot", "pop": 911817, "lat": "32.4926800", "lng": "74.5313400"}, {"name": "Bahawalpur", "pop": 903795, "lat": "29.3977900", "lng": "71.6752000"}, {"name": "Dera Ismail Khan", "pop": 763195, "lat": "31.8312900", "lng": "70.9017000"}, {"name": "Muzaffarābād", "pop": 725000, "lat": "34.3700200", "lng": "73.4708200"}, {"name": "Battagram", "pop": 700000, "lat": "34.6771900", "lng": "73.0232900"}, {"name": "Islamabad", "pop": 601600, "lat": "33.7214800", "lng": "73.0432900"}, {"name": "Shekhupura", "pop": 591424, "lat": "31.7128700", "lng": "73.9855600"}, {"name": "Gujrat", "pop": 574240, "lat": "32.5742000", "lng": "74.0754200"}, {"name": "Sukkur", "pop": 563851, "lat": "27.7032300", "lng": "68.8588900"}, {"name": "Sahiwal", "pop": 538344, "lat": "30.6659500", "lng": "73.1018600"}, {"name": "Okara", "pop": 533693, "lat": "30.8102900", "lng": "73.4515500"}, {"name": "Rahim Yar Khan", "pop": 517000, "lat": "28.4198700", "lng": "70.3034500"}, {"name": "Kasur", "pop": 510875, "lat": "31.1186600", "lng": "74.4502500"}, {"name": "Dera Ghazi Khan", "pop": 494464, "lat": "30.0458700", "lng": "70.6402900"}, {"name": "Tando Allahyar", "pop": 421923, "lat": "25.4605000", "lng": "68.7174500"}, {"name": "Larkana", "pop": 364033, "lat": "27.5589800", "lng": "68.2120400"}, {"name": "Nawabshah", "pop": 363138, "lat": "26.2393900", "lng": "68.4036900"}, {"name": "Jhang Sadr", "pop": 341210, "lat": "31.2698100", "lng": "72.3168700"}, {"name": "Hafizabad", "pop": 318621, "lat": "32.0709500", "lng": "73.6880200"}, {"name": "Chiniot", "pop": 318165, "lat": "31.7209100", "lng": "72.9783600"}, {"name": "Mardan", "pop": 300424, "lat": "34.1979400", "lng": "72.0496500"}, {"name": "Mingora", "pop": 279914, "lat": "34.7795000", "lng": "72.3626500"}, {"name": "Abbottabad", "pop": 275890, "lat": "34.1463000", "lng": "73.2116800"}, {"name": "Mirpur Khas", "pop": 267833, "lat": "25.5276000", "lng": "69.0125500"}, {"name": "Skardu", "pop": 260000, "lat": "35.2978700", "lng": "75.6337200"}], "IN": [{"name": "Mumbai", "pop": 12691836, "lat": "19.0728300", "lng": "72.8826100"}, {"name": "Delhi", "pop": 11034555, "lat": "28.6519500", "lng": "77.2314900"}, {"name": "Bengaluru", "pop": 8495492, "lat": "12.9719400", "lng": "77.5936900"}, {"name": "Hyderabad", "pop": 6993262, "lat": "17.3840500", "lng": "78.4563600"}, {"name": "Ahmedabad", "pop": 6357693, "lat": "23.0257900", "lng": "72.5872700"}, {"name": "Chennai", "pop": 4681087, "lat": "13.0878400", "lng": "80.2784700"}, {"name": "Kolkata", "pop": 4631392, "lat": "22.5626300", "lng": "88.3630400"}, {"name": "Surat", "pop": 4591246, "lat": "21.1959400", "lng": "72.8302300"}, {"name": "Pune", "pop": 3124458, "lat": "18.5195700", "lng": "73.8553500"}, {"name": "Jaipur", "pop": 3046163, "lat": "26.9196200", "lng": "75.7878100"}, {"name": "Kanpur", "pop": 2823249, "lat": "26.4652300", "lng": "80.3497500"}, {"name": "Lucknow", "pop": 2472011, "lat": "26.8392800", "lng": "80.9231300"}, {"name": "Nagpur", "pop": 2405665, "lat": "21.1463100", "lng": "79.0849100"}, {"name": "Coimbatore", "pop": 2136916, "lat": "11.0055500", "lng": "76.9661200"}, {"name": "Indore", "pop": 1994397, "lat": "22.7179200", "lng": "75.8333000"}, {"name": "Thāne", "pop": 1841488, "lat": "19.1970400", "lng": "72.9635500"}, {"name": "Vadodara", "pop": 1822221, "lat": "22.2994100", "lng": "73.2081200"}, {"name": "Bhopal", "pop": 1798218, "lat": "23.2546900", "lng": "77.4028900"}, {"name": "Rasapūdipalem", "pop": 1728128, "lat": "17.7330800", "lng": "83.3162200"}, {"name": "Pimpri-Chinchwad", "pop": 1727692, "lat": "18.6186700", "lng": "73.8037500"}, {"name": "Patna", "pop": 1684297, "lat": "25.5940800", "lng": "85.1356300"}, {"name": "Kallakurichi", "pop": 1682687, "lat": "11.7337900", "lng": "78.9592500"}, {"name": "Ludhiana", "pop": 1618879, "lat": "30.9120400", "lng": "75.8537900"}, {"name": "Nashik", "pop": 1486053, "lat": "19.9972700", "lng": "73.7909600"}, {"name": "Madurai", "pop": 1465625, "lat": "9.9190000", "lng": "78.1195300"}, {"name": "Tirunelveli", "pop": 1435844, "lat": "8.7274200", "lng": "77.6838000"}, {"name": "Agra", "pop": 1430055, "lat": "27.1833300", "lng": "78.0166700"}, {"name": "Faridabad", "pop": 1414050, "lat": "28.4112400", "lng": "77.3131600"}, {"name": "Rājkot", "pop": 1390640, "lat": "22.2916100", "lng": "70.7932200"}, {"name": "Najafgarh", "pop": 1365000, "lat": "28.6092200", "lng": "76.9798200"}, {"name": "Jamshedpur", "pop": 1339438, "lat": "22.8027800", "lng": "86.1854500"}, {"name": "Gorakhpur", "pop": 1324570, "lat": "29.4476800", "lng": "75.6720600"}, {"name": "Pimpri", "pop": 1284606, "lat": "18.6229200", "lng": "73.8069600"}, {"name": "Kalyān", "pop": 1262255, "lat": "19.2437000", "lng": "73.1355400"}, {"name": "Dombivali", "pop": 1247327, "lat": "19.2166700", "lng": "73.0833300"}, {"name": "Meerut", "pop": 1223184, "lat": "28.9800200", "lng": "77.7063600"}, {"name": "Virār", "pop": 1222390, "lat": "19.4559100", "lng": "72.8113600"}, {"name": "Nowrangapur", "pop": 1220946, "lat": "19.2311400", "lng": "82.5482600"}, {"name": "Srinagar", "pop": 1206419, "lat": "34.0856500", "lng": "74.8055500"}, {"name": "Ghāziābād", "pop": 1199191, "lat": "28.6653500", "lng": "77.4391500"}, {"name": "Dhanbad", "pop": 1196214, "lat": "23.7975900", "lng": "86.4299200"}, {"name": "Aurangabad", "pop": 1175116, "lat": "19.8775700", "lng": "75.3422600"}, {"name": "Varanasi", "pop": 1164404, "lat": "25.3166800", "lng": "83.0104100"}, {"name": "Amritsar", "pop": 1159227, "lat": "31.6223400", "lng": "74.8753400"}, {"name": "Vijayawada", "pop": 1143232, "lat": "16.5074500", "lng": "80.6466000"}, {"name": "Ranchi", "pop": 1120374, "lat": "23.3431600", "lng": "85.3094000"}, {"name": "Jabalpur", "pop": 1081677, "lat": "23.1669700", "lng": "79.9500600"}, {"name": "Prayagraj", "pop": 1073438, "lat": "25.4447800", "lng": "81.8432200"}, {"name": "Visakhapatnam", "pop": 1063178, "lat": "17.6800900", "lng": "83.2016100"}, {"name": "Jodhpur", "pop": 1056191, "lat": "26.2684100", "lng": "73.0059400"}, {"name": "Gwalior", "pop": 1054420, "lat": "26.2298300", "lng": "78.1733700"}, {"name": "Howrah", "pop": 1027672, "lat": "22.5768800", "lng": "88.3185700"}, {"name": "Raipur", "pop": 1027264, "lat": "21.2333300", "lng": "81.6333300"}, {"name": "Tiruchirappalli", "pop": 1022518, "lat": "10.8155000", "lng": "78.6965100"}, {"name": "Kota", "pop": 1001694, "lat": "25.1825400", "lng": "75.8390700"}, {"name": "Sholapur", "pop": 997281, "lat": "17.6715200", "lng": "75.9104400"}, {"name": "Chandigarh", "pop": 970602, "lat": "30.7362900", "lng": "76.7884000"}, {"name": "Tiruppur", "pop": 963173, "lat": "11.1154100", "lng": "77.3545600"}, {"name": "Guwahati", "pop": 962334, "lat": "26.1844000", "lng": "91.7458000"}, {"name": "Hubballi", "pop": 943788, "lat": "15.3477600", "lng": "75.1337800"}, {"name": "Mysuru", "pop": 920550, "lat": "12.2979100", "lng": "76.6392500"}, {"name": "Salem", "pop": 917414, "lat": "11.6537600", "lng": "78.1553800"}, {"name": "Gurugram", "pop": 886519, "lat": "28.4601000", "lng": "77.0263500"}, {"name": "Bhubaneswar", "pop": 885363, "lat": "20.2724100", "lng": "85.8338500"}, {"name": "Bhiwandi", "pop": 874032, "lat": "19.3002300", "lng": "73.0588100"}, {"name": "Jalandhar", "pop": 868929, "lat": "31.3255600", "lng": "75.5791700"}, {"name": "Kanayannur", "pop": 851406, "lat": "9.9666700", "lng": "76.2666700"}, {"name": "Bhayandar", "pop": 809378, "lat": "19.3015700", "lng": "72.8510700"}, {"name": "Narela", "pop": 800000, "lat": "28.8526700", "lng": "77.0928800"}, {"name": "Thiruvananthapuram", "pop": 788271, "lat": "8.4855000", "lng": "76.9492400"}, {"name": "Alīgarh", "pop": 753207, "lat": "27.8814500", "lng": "78.0746400"}, {"name": "Bareilly", "pop": 745435, "lat": "28.3667800", "lng": "79.4316700"}, {"name": "Morādābād", "pop": 721139, "lat": "28.8389300", "lng": "78.7768400"}, {"name": "Warangal", "pop": 704570, "lat": "18.0000000", "lng": "79.5833300"}, {"name": "Gorakhpur", "pop": 674246, "lat": "26.7662800", "lng": "83.3688900"}, {"name": "Guntur", "pop": 670073, "lat": "16.2997400", "lng": "80.4572900"}, {"name": "Puducherry", "pop": 657209, "lat": "11.9338100", "lng": "79.8297900"}, {"name": "Amravati", "pop": 647057, "lat": "20.9333300", "lng": "77.7500000"}, {"name": "Bikaner", "pop": 644406, "lat": "28.0176200", "lng": "73.3149500"}, {"name": "Kochi", "pop": 633553, "lat": "9.9398800", "lng": "76.2602200"}, {"name": "Bhilai", "pop": 627734, "lat": "21.2091900", "lng": "81.4285000"}, {"name": "Cuttack", "pop": 610189, "lat": "20.4649700", "lng": "85.8792700"}, {"name": "Borivli", "pop": 609617, "lat": "19.2349600", "lng": "72.8597600"}, {"name": "Bhavnagar", "pop": 605882, "lat": "21.7628700", "lng": "72.1533100"}, {"name": "Sāngli", "pop": 601214, "lat": "16.8543800", "lng": "74.5641700"}, {"name": "Jamnagar", "pop": 600943, "lat": "22.4729200", "lng": "70.0667300"}, {"name": "Jammu", "pop": 576198, "lat": "32.7352800", "lng": "74.8616700"}, {"name": "Bokāro", "pop": 564319, "lat": "23.6693400", "lng": "86.1516100"}, {"name": "Nanded", "pop": 550564, "lat": "19.1602300", "lng": "77.3149700"}, {"name": "Kozhikode", "pop": 550440, "lat": "11.2480200", "lng": "75.7804000"}, {"name": "Kolhāpur", "pop": 549236, "lat": "16.6956300", "lng": "74.2316700"}, {"name": "Nellore", "pop": 547621, "lat": "14.4499200", "lng": "79.9869700"}, {"name": "Kalaburagi", "pop": 543147, "lat": "17.3358300", "lng": "76.8375700"}, {"name": "Ajmer", "pop": 542321, "lat": "26.4521000", "lng": "74.6386700"}, {"name": "Dehra Dūn", "pop": 522081, "lat": "30.3244300", "lng": "78.0339200"}, {"name": "Erode", "pop": 521891, "lat": "11.3428000", "lng": "77.7274100"}, {"name": "Durgapur", "pop": 518872, "lat": "23.5158300", "lng": "87.3080100"}, {"name": "Ulhasnagar", "pop": 516584, "lat": "19.2166700", "lng": "73.1500000"}, {"name": "Loni", "pop": 516082, "lat": "28.7514300", "lng": "77.2902300"}, {"name": "Siliguri", "pop": 515574, "lat": "26.7100400", "lng": "88.4285100"}, {"name": "Ujjain", "pop": 515215, "lat": "23.1823900", "lng": "75.7764300"}, {"name": "Bilimora", "pop": 510879, "lat": "20.7695700", "lng": "72.9613400"}, {"name": "Āsansol", "pop": 504271, "lat": "23.6833300", "lng": "86.9833300"}, {"name": "Mangaluru", "pop": 499487, "lat": "12.9172300", "lng": "74.8560300"}, {"name": "Belagavi", "pop": 490045, "lat": "15.8521200", "lng": "74.5044700"}, {"name": "Sahāranpur", "pop": 484873, "lat": "29.9679000", "lng": "77.5452200"}, {"name": "Vellore", "pop": 484690, "lat": "12.9184000", "lng": "79.1325500"}, {"name": "Bhātpāra", "pop": 483129, "lat": "22.8664300", "lng": "88.4011300"}, {"name": "Malegaon", "pop": 481228, "lat": "20.5496600", "lng": "74.5346200"}, {"name": "Gaya", "pop": 474093, "lat": "24.7968600", "lng": "85.0038500"}, {"name": "Ambattur", "pop": 466205, "lat": "13.0981800", "lng": "80.1615200"}, {"name": "Jalgaon", "pop": 460228, "lat": "21.0029200", "lng": "75.5660200"}, {"name": "Kurnool", "pop": 460184, "lat": "15.8288700", "lng": "78.0360200"}, {"name": "Rāmgundam", "pop": 452261, "lat": "18.8008400", "lng": "79.4520600"}, {"name": "Udaipur", "pop": 451100, "lat": "24.5858400", "lng": "73.7134600"}, {"name": "Maheshtala", "pop": 448317, "lat": "22.5086200", "lng": "88.2532200"}, {"name": "Patiāla", "pop": 446246, "lat": "30.3362500", "lng": "76.3922000"}, {"name": "Shyamnagar", "pop": 441956, "lat": "22.8333300", "lng": "88.3666700"}, {"name": "Davangere", "pop": 435128, "lat": "14.4669300", "lng": "75.9269400"}, {"name": "Akola", "pop": 428857, "lat": "20.7095700", "lng": "76.9981000"}, {"name": "Rajpur Sonarpur", "pop": 424368, "lat": "22.4382000", "lng": "88.4320500"}, {"name": "Korba", "pop": 419146, "lat": "22.3458000", "lng": "82.6963300"}, {"name": "Jhānsi", "pop": 412927, "lat": "25.4588700", "lng": "78.5799400"}, {"name": "Thoothukudi", "pop": 410760, "lat": "8.7673500", "lng": "78.1342500"}, {"name": "Ballari", "pop": 410445, "lat": "15.1420500", "lng": "76.9239800"}, {"name": "Bhāgalpur", "pop": 400146, "lat": "25.2444600", "lng": "86.9718300"}, {"name": "Agartala", "pop": 400004, "lat": "23.8360500", "lng": "91.2793900"}, {"name": "Kākināda", "pop": 384182, "lat": "16.9603600", "lng": "82.2380900"}, {"name": "Latur", "pop": 382940, "lat": "18.3972100", "lng": "76.5678400"}, {"name": "Pānihāti", "pop": 378705, "lat": "22.6908900", "lng": "88.3740400"}, {"name": "Rajamahendravaram", "pop": 376333, "lat": "17.0051700", "lng": "81.7778400"}, {"name": "Dhule", "pop": 375559, "lat": "20.9013000", "lng": "74.7773700"}, {"name": "Rohtak", "pop": 374292, "lat": "28.8944700", "lng": "76.5891700"}, {"name": "Ahilyanagar", "pop": 367140, "lat": "19.0945700", "lng": "74.7384300"}, {"name": "Kollam", "pop": 367107, "lat": "8.8811300", "lng": "76.5846900"}, {"name": "Bilāspur", "pop": 365579, "lat": "22.0800500", "lng": "82.1554300"}, {"name": "Bhilwara", "pop": 359483, "lat": "25.3470700", "lng": "74.6408100"}, {"name": "Brahmapur", "pop": 356598, "lat": "19.3115100", "lng": "84.7929000"}, {"name": "Muzaffarpur", "pop": 354462, "lat": "26.1225900", "lng": "85.3905500"}, {"name": "Punāsa", "pop": 350000, "lat": "22.2350700", "lng": "76.3933500"}, {"name": "Muzaffarnagar", "pop": 349706, "lat": "29.4709100", "lng": "77.7033200"}, {"name": "Avadi", "pop": 345996, "lat": "13.1147000", "lng": "80.1098100"}, {"name": "Kadapa", "pop": 344893, "lat": "14.4799500", "lng": "78.8234600"}, {"name": "Kukatpally", "pop": 341709, "lat": "17.4848600", "lng": "78.4137600"}, {"name": "Kāmārhāti", "pop": 332965, "lat": "22.6711100", "lng": "88.3747200"}, {"name": "Mathura", "pop": 330511, "lat": "27.5035000", "lng": "77.6721500"}, {"name": "Chānda", "pop": 328351, "lat": "19.9507600", "lng": "79.2952300"}, {"name": "Vijayapura", "pop": 327427, "lat": "16.8244200", "lng": "75.7153700"}, {"name": "Shivamogga", "pop": 322650, "lat": "13.9315700", "lng": "75.5679100"}, {"name": "Alwar", "pop": 322568, "lat": "27.5624600", "lng": "76.6250000"}, {"name": "Shāhjānpur", "pop": 320434, "lat": "27.8816500", "lng": "79.9091800"}, {"name": "Jūnāgadh", "pop": 319462, "lat": "21.5196600", "lng": "70.4598100"}, {"name": "New Delhi", "pop": 317797, "lat": "28.6213700", "lng": "77.2148000"}, {"name": "Thrissur", "pop": 315957, "lat": "10.5166700", "lng": "76.2166700"}, {"name": "Nizāmābād", "pop": 311152, "lat": "18.6715400", "lng": "78.0988000"}, {"name": "Tumkūr", "pop": 307359, "lat": "13.3413600", "lng": "77.1022000"}, {"name": "Parbhani", "pop": 307170, "lat": "19.2685500", "lng": "76.7708100"}, {"name": "Hisar", "pop": 307024, "lat": "29.1539400", "lng": "75.7229400"}, {"name": "Fīrozābād", "pop": 306409, "lat": "27.1509200", "lng": "78.3978100"}, {"name": "Kulti", "pop": 305405, "lat": "23.7316600", "lng": "86.8437200"}, {"name": "Karnāl", "pop": 302140, "lat": "29.6919700", "lng": "76.9844800"}, {"name": "Barddhamān", "pop": 301725, "lat": "23.2557200", "lng": "87.8569100"}, {"name": "Gundupālaiyam", "pop": 300104, "lat": "11.9409600", "lng": "79.8029400"}, {"name": "Bārāsat", "pop": 298127, "lat": "22.7215400", "lng": "88.4819800"}, {"name": "Mulugu", "pop": 297671, "lat": "18.1910000", "lng": "79.9430000"}, {"name": "Bihār Sharīf", "pop": 297268, "lat": "25.2008400", "lng": "85.5238900"}, {"name": "Bāli", "pop": 296973, "lat": "22.6485900", "lng": "88.3411500"}, {"name": "Rāmpur", "pop": 296418, "lat": "28.8101400", "lng": "79.0269900"}, {"name": "Darbhanga", "pop": 296039, "lat": "26.1521600", "lng": "85.8970700"}, {"name": "Panipat", "pop": 295970, "lat": "29.3874700", "lng": "76.9682500"}, {"name": "Tirupati", "pop": 295323, "lat": "13.6355100", "lng": "79.4198900"}, {"name": "Noida", "pop": 293908, "lat": "28.5800000", "lng": "77.3300000"}, {"name": "Greater Noida", "pop": 293908, "lat": "28.4961500", "lng": "77.5360100"}, {"name": "Aizawl", "pop": 293416, "lat": "23.7289400", "lng": "92.7179100"}, {"name": "Gandhinagar", "pop": 292797, "lat": "23.2166700", "lng": "72.6833300"}, {"name": "Dindigul", "pop": 292512, "lat": "10.3689600", "lng": "77.9803600"}, {"name": "Thanjavur", "pop": 291067, "lat": "10.7852300", "lng": "79.1390900"}, {"name": "Karīmnagar", "pop": 289821, "lat": "18.4391500", "lng": "79.1285600"}, {"name": "Dewas", "pop": 289550, "lat": "22.9658500", "lng": "76.0552600"}, {"name": "Sonīpat", "pop": 289333, "lat": "28.9947800", "lng": "77.0193700"}, {"name": "Ichalkaranji", "pop": 287353, "lat": "16.6911700", "lng": "74.4605400"}, {"name": "Bathinda", "pop": 285788, "lat": "30.2074700", "lng": "74.9389300"}, {"name": "Jālna", "pop": 285577, "lat": "19.8410200", "lng": "75.8863600"}, {"name": "Kirāri Sulemānnagar", "pop": 283211, "lat": "28.6973600", "lng": "77.0648000"}, {"name": "Satna", "pop": 282977, "lat": "24.5772600", "lng": "80.8271900"}, {"name": "Purnia", "pop": 282248, "lat": "25.7789500", "lng": "87.4742200"}, {"name": "Imphal", "pop": 277196, "lat": "24.8080500", "lng": "93.9442000"}, {"name": "Saugor", "pop": 274556, "lat": "23.8387700", "lng": "78.7387400"}, {"name": "Kushinagar", "pop": 274403, "lat": "26.7413400", "lng": "83.8868900"}, {"name": "Rourkela", "pop": 273317, "lat": "22.2249600", "lng": "84.8641400"}, {"name": "Durg", "pop": 268806, "lat": "21.1914700", "lng": "81.2761900"}, {"name": "Anantapur", "pop": 267161, "lat": "14.6778400", "lng": "77.6081300"}, {"name": "Ratlām", "pop": 264914, "lat": "23.3303300", "lng": "75.0403200"}, {"name": "Rānipet", "pop": 264330, "lat": "12.9247100", "lng": "79.3333100"}, {"name": "Lal Bahadur Nagar", "pop": 261987, "lat": "17.3476900", "lng": "78.5575700"}, {"name": "Arrah", "pop": 261430, "lat": "25.5562900", "lng": "84.6633500"}, {"name": "Gajuwaka", "pop": 258944, "lat": "17.7000000", "lng": "83.2166700"}, {"name": "Etāwah", "pop": 257448, "lat": "26.7761500", "lng": "79.0213300"}, {"name": "Ambarnath", "pop": 253475, "lat": "19.2000000", "lng": "73.1666700"}, {"name": "Naihāti", "pop": 253221, "lat": "22.8939600", "lng": "88.4152100"}, {"name": "Bharatpur", "pop": 252838, "lat": "27.2173100", "lng": "77.4900900"}, {"name": "Begusarai", "pop": 252008, "lat": "25.4185300", "lng": "86.1338900"}], "BR": [{"name": "São Paulo", "pop": 12400232, "lat": "-23.5475000", "lng": "-46.6361100"}, {"name": "Rio de Janeiro", "pop": 6747815, "lat": "-22.9064200", "lng": "-43.1822300"}, {"name": "Belo Horizonte", "pop": 2721564, "lat": "-19.9208300", "lng": "-43.9377800"}, {"name": "Salvador", "pop": 2711840, "lat": "-12.9756300", "lng": "-38.4909600"}, {"name": "Fortaleza", "pop": 2400000, "lat": "-3.7172200", "lng": "-38.5430600"}, {"name": "Manaus", "pop": 2219580, "lat": "-3.1019400", "lng": "-60.0250000"}, {"name": "Brasília", "pop": 2207718, "lat": "-15.7797200", "lng": "-47.9297200"}, {"name": "Curitiba", "pop": 1948626, "lat": "-25.4277800", "lng": "-49.2730600"}, {"name": "Recife", "pop": 1653461, "lat": "-8.0538900", "lng": "-34.8811100"}, {"name": "Goiânia", "pop": 1536097, "lat": "-16.6786100", "lng": "-49.2538900"}, {"name": "Belém", "pop": 1499641, "lat": "-1.4558300", "lng": "-48.5044400"}, {"name": "Porto Alegre", "pop": 1488252, "lat": "-30.0328300", "lng": "-51.2301900"}, {"name": "Guarulhos", "pop": 1169577, "lat": "-23.4627800", "lng": "-46.5333300"}, {"name": "Maceió", "pop": 1031597, "lat": "-9.6658300", "lng": "-35.7352800"}, {"name": "Campinas", "pop": 1031554, "lat": "-22.9055600", "lng": "-47.0608300"}, {"name": "São Luís", "pop": 917237, "lat": "-2.5297200", "lng": "-44.3027800"}, {"name": "Campo Grande", "pop": 906092, "lat": "-20.4427800", "lng": "-54.6463900"}, {"name": "Natal", "pop": 896708, "lat": "-5.7950000", "lng": "-35.2094400"}, {"name": "Teresina", "pop": 871126, "lat": "-5.0891700", "lng": "-42.8019400"}, {"name": "Nova Iguaçu", "pop": 823302, "lat": "-22.7591700", "lng": "-43.4511100"}, {"name": "Duque de Caxias", "pop": 818329, "lat": "-22.7855600", "lng": "-43.3116700"}, {"name": "João Pessoa", "pop": 817511, "lat": "-7.1150000", "lng": "-34.8630600"}, {"name": "São Bernardo do Campo", "pop": 743372, "lat": "-23.6938900", "lng": "-46.5650000"}, {"name": "São José dos Campos", "pop": 729737, "lat": "-23.1794400", "lng": "-45.8869400"}, {"name": "Osasco", "pop": 728615, "lat": "-23.5325000", "lng": "-46.7916700"}, {"name": "Ribeirão Preto", "pop": 711825, "lat": "-21.1775000", "lng": "-47.8102800"}, {"name": "Jaboatão", "pop": 702621, "lat": "-8.1802800", "lng": "-35.0013900"}, {"name": "Sorocaba", "pop": 687357, "lat": "-23.5016700", "lng": "-47.4580600"}, {"name": "Aracaju", "pop": 664908, "lat": "-10.9111100", "lng": "-37.0716700"}, {"name": "Santo André", "pop": 662373, "lat": "-23.6638900", "lng": "-46.5383300"}, {"name": "Jaboatão dos Guararapes", "pop": 644037, "lat": "-8.1127800", "lng": "-35.0147200"}, {"name": "Contagem", "pop": 627123, "lat": "-19.9316700", "lng": "-44.0536100"}, {"name": "Feira de Santana", "pop": 619609, "lat": "-12.2666700", "lng": "-38.9666700"}, {"name": "Cuiabá", "pop": 618124, "lat": "-15.5961100", "lng": "-56.0966700"}, {"name": "Londrina", "pop": 588125, "lat": "-23.3102800", "lng": "-51.1627800"}, {"name": "Juiz de Fora", "pop": 573285, "lat": "-21.7641700", "lng": "-43.3502800"}, {"name": "Uberlândia", "pop": 563536, "lat": "-18.9186100", "lng": "-48.2772200"}, {"name": "Porto Velho", "pop": 548952, "lat": "-8.7619400", "lng": "-63.9038900"}, {"name": "Serra", "pop": 520653, "lat": "-20.1286100", "lng": "-40.3077800"}, {"name": "Macapá", "pop": 512902, "lat": "0.0388900", "lng": "-51.0663900"}, {"name": "Campos dos Goytacazes", "pop": 511168, "lat": "-21.7522700", "lng": "-41.3304400"}, {"name": "Aparecida de Goiânia", "pop": 510770, "lat": "-16.8233300", "lng": "-49.2438900"}, {"name": "Florianópolis", "pop": 508826, "lat": "-27.5966700", "lng": "-48.5491700"}, {"name": "São José do Rio Preto", "pop": 480393, "lat": "-20.8197200", "lng": "-49.3794400"}, {"name": "Mauá", "pop": 477552, "lat": "-23.6677800", "lng": "-46.4613900"}, {"name": "São João de Meriti", "pop": 466536, "lat": "-22.8038900", "lng": "-43.3722200"}, {"name": "Belford Roxo", "pop": 466096, "lat": "-22.7641700", "lng": "-43.3994400"}, {"name": "Joinville", "pop": 461304, "lat": "-26.3044400", "lng": "-48.8455600"}, {"name": "Niterói", "pop": 456456, "lat": "-22.8833300", "lng": "-43.1036100"}, {"name": "Jundiaí", "pop": 443221, "lat": "-23.1863900", "lng": "-46.8841700"}, {"name": "Ananindeua", "pop": 433956, "lat": "-1.3655600", "lng": "-48.3722200"}, {"name": "Santos", "pop": 433656, "lat": "-23.9608300", "lng": "-46.3336100"}, {"name": "Boa Vista", "pop": 419652, "lat": "2.8197200", "lng": "-60.6733300"}, {"name": "Rio Branco", "pop": 419452, "lat": "-9.9747200", "lng": "-67.8100000"}, {"name": "Montes Claros", "pop": 414240, "lat": "-16.7350000", "lng": "-43.8616700"}, {"name": "Piracicaba", "pop": 407252, "lat": "-22.7252800", "lng": "-47.6491700"}, {"name": "Caruaru", "pop": 402290, "lat": "-8.2833300", "lng": "-35.9761100"}, {"name": "Vila Velha", "pop": 394930, "lat": "-20.3297200", "lng": "-40.2925000"}, {"name": "Diadema", "pop": 393237, "lat": "-23.6861100", "lng": "-46.6227800"}, {"name": "Carapicuíba", "pop": 386984, "lat": "-23.5227200", "lng": "-46.8350000"}, {"name": "Petrolina", "pop": 386791, "lat": "-9.3986100", "lng": "-40.5008300"}, {"name": "Betim", "pop": 384000, "lat": "-19.9677800", "lng": "-44.1983300"}, {"name": "Caxias do Sul", "pop": 381270, "lat": "-29.1680600", "lng": "-51.1794400"}, {"name": "Bauru", "pop": 379297, "lat": "-22.3147200", "lng": "-49.0605600"}, {"name": "Itaquaquecetuba", "pop": 369275, "lat": "-23.4861100", "lng": "-46.3483300"}, {"name": "Olinda", "pop": 366754, "lat": "-8.0088900", "lng": "-34.8552800"}, {"name": "Blumenau", "pop": 361855, "lat": "-26.9194400", "lng": "-49.0661100"}, {"name": "Franca", "pop": 358539, "lat": "-20.5386100", "lng": "-47.4008300"}, {"name": "Caucaia", "pop": 355679, "lat": "-3.7361100", "lng": "-38.6530600"}, {"name": "Cariacica", "pop": 353491, "lat": "-20.2638900", "lng": "-40.4200000"}, {"name": "Praia Grande", "pop": 349935, "lat": "-24.0058300", "lng": "-46.4027800"}, {"name": "Campina Grande", "pop": 348936, "lat": "-7.2305600", "lng": "-35.8811100"}, {"name": "Paulista", "pop": 342167, "lat": "-7.9408300", "lng": "-34.8730600"}, {"name": "Uberaba", "pop": 337836, "lat": "-19.7483300", "lng": "-47.9319400"}, {"name": "São Vicente", "pop": 329911, "lat": "-23.9630600", "lng": "-46.3919400"}, {"name": "Ribeirão das Neves", "pop": 329794, "lat": "-19.7669400", "lng": "-44.0866700"}, {"name": "São José dos Pinhais", "pop": 329628, "lat": "-25.5302000", "lng": "-49.2083600"}, {"name": "Canoas", "pop": 328291, "lat": "-29.9177800", "lng": "-51.1836100"}, {"name": "Mogi das Cruzes", "pop": 325746, "lat": "-23.5227800", "lng": "-46.1883300"}, {"name": "Guarujá", "pop": 322750, "lat": "-23.9930600", "lng": "-46.2563900"}, {"name": "Pelotas", "pop": 320674, "lat": "-31.7699700", "lng": "-52.3410100"}, {"name": "Anápolis", "pop": 319587, "lat": "-16.3266700", "lng": "-48.9527800"}, {"name": "Taubaté", "pop": 317915, "lat": "-23.0263900", "lng": "-45.5552800"}, {"name": "Barueri", "pop": 316473, "lat": "-23.5105600", "lng": "-46.8761100"}, {"name": "Várzea Grande", "pop": 314627, "lat": "-15.6466700", "lng": "-56.1325000"}, {"name": "Vitória", "pop": 312656, "lat": "-20.3194400", "lng": "-40.3377800"}, {"name": "Maringá", "pop": 311724, "lat": "-23.4252800", "lng": "-51.9386100"}, {"name": "Suzano", "pop": 307429, "lat": "-23.5425000", "lng": "-46.3108300"}, {"name": "Palmas", "pop": 306296, "lat": "-10.1674500", "lng": "-48.3276600"}, {"name": "Ponta Grossa", "pop": 292177, "lat": "-25.0950000", "lng": "-50.1619400"}, {"name": "Limeira", "pop": 291869, "lat": "-22.5647200", "lng": "-47.4016700"}, {"name": "Ceilândia", "pop": 287023, "lat": "-15.8091000", "lng": "-48.1309600"}, {"name": "Sumaré", "pop": 286211, "lat": "-22.8219400", "lng": "-47.2669400"}, {"name": "Viamão", "pop": 285269, "lat": "-30.0811100", "lng": "-51.0233300"}, {"name": "Santa Maria", "pop": 283677, "lat": "-29.6841700", "lng": "-53.8069400"}, {"name": "Volta Redonda", "pop": 279898, "lat": "-22.5230600", "lng": "-44.1041700"}, {"name": "Taboão da Serra", "pop": 273542, "lat": "-23.6261100", "lng": "-46.7916700"}, {"name": "Petrópolis", "pop": 272691, "lat": "-22.5050000", "lng": "-43.1786100"}, {"name": "São José", "pop": 270299, "lat": "-27.6152800", "lng": "-48.6275000"}, {"name": "Parauapebas", "pop": 267836, "lat": "-6.0675000", "lng": "-49.9022200"}, {"name": "Parnamirim", "pop": 267036, "lat": "-5.9155600", "lng": "-35.2627800"}, {"name": "Gravataí", "pop": 265074, "lat": "-29.9421800", "lng": "-50.9927800"}, {"name": "Mossoró", "pop": 264577, "lat": "-5.1875000", "lng": "-37.3441700"}, {"name": "Rondonópolis", "pop": 259167, "lat": "-16.4708300", "lng": "-54.6355600"}, {"name": "Foz do Iguaçu", "pop": 258248, "lat": "-25.5477800", "lng": "-54.5880600"}, {"name": "Cascavel", "pop": 257172, "lat": "-24.9558300", "lng": "-53.4552800"}, {"name": "Indaiatuba", "pop": 256223, "lat": "-23.0884200", "lng": "-47.2119000"}, {"name": "Novo Hamburgo", "pop": 253841, "lat": "-29.6783300", "lng": "-51.1305600"}, {"name": "Cotia", "pop": 253608, "lat": "-23.6038900", "lng": "-46.9191700"}, {"name": "Vitória da Conquista", "pop": 253137, "lat": "-14.8661100", "lng": "-40.8394400"}, {"name": "Governador Valadares", "pop": 250878, "lat": "-18.8511100", "lng": "-41.9494400"}, {"name": "Embu das Artes", "pop": 250691, "lat": "-23.6488900", "lng": "-46.8522200"}], "MX": [{"name": "Mexico City", "pop": 12294193, "lat": "19.4284700", "lng": "-99.1276600"}, {"name": "Tijuana", "pop": 1922523, "lat": "32.5027000", "lng": "-117.0037100"}, {"name": "Iztapalapa", "pop": 1835486, "lat": "19.3552900", "lng": "-99.0622400"}, {"name": "Puebla", "pop": 1692181, "lat": "19.0477800", "lng": "-98.2072300"}, {"name": "Ecatepec de Morelos", "pop": 1645352, "lat": "19.6049200", "lng": "-99.0606400"}, {"name": "Santiago de Querétaro", "pop": 1594212, "lat": "20.5880600", "lng": "-100.3880600"}, {"name": "León de los Aldama", "pop": 1579803, "lat": "21.1290800", "lng": "-101.6737400"}, {"name": "Ciudad Juárez", "pop": 1512450, "lat": "31.7202400", "lng": "-106.4608400"}, {"name": "Zapopan", "pop": 1476491, "lat": "20.7211100", "lng": "-103.3874200"}, {"name": "Guadalajara", "pop": 1385629, "lat": "20.6773800", "lng": "-103.3474900"}, {"name": "Mérida", "pop": 1201000, "lat": "20.9670000", "lng": "-89.6231800"}, {"name": "Gustavo Adolfo Madero", "pop": 1185772, "lat": "19.4939200", "lng": "-99.1107500"}, {"name": "Monterrey", "pop": 1135512, "lat": "25.6843500", "lng": "-100.3172100"}, {"name": "Ciudad Nezahualcoyotl", "pop": 1077208, "lat": "19.4006100", "lng": "-99.0148300"}, {"name": "Mexicali", "pop": 1032686, "lat": "32.6278100", "lng": "-115.4544600"}, {"name": "Chihuahua", "pop": 925762, "lat": "28.6352800", "lng": "-106.0888900"}, {"name": "Cancún", "pop": 888797, "lat": "21.1742900", "lng": "-86.8465600"}, {"name": "Naucalpan de Juárez", "pop": 834434, "lat": "19.4785100", "lng": "-99.2396300"}, {"name": "Hermosillo", "pop": 812229, "lat": "29.0887400", "lng": "-110.9667700"}, {"name": "Culiacán", "pop": 808416, "lat": "24.8020900", "lng": "-107.3942100"}, {"name": "Morelia", "pop": 743275, "lat": "19.7007800", "lng": "-101.1844300"}, {"name": "Torreón", "pop": 735340, "lat": "25.5438900", "lng": "-103.4189800"}, {"name": "San Luis Potosí", "pop": 722772, "lat": "22.1523400", "lng": "-100.9713500"}, {"name": "Aguascalientes", "pop": 722250, "lat": "21.8826200", "lng": "-102.2843000"}, {"name": "Saltillo", "pop": 709671, "lat": "25.4259500", "lng": "-100.9796300"}, {"name": "Guadalupe", "pop": 673616, "lat": "25.6767800", "lng": "-100.2564600"}, {"name": "Acapulco de Juárez", "pop": 658609, "lat": "16.8494200", "lng": "-99.9089100"}, {"name": "Tlalnepantla", "pop": 653410, "lat": "19.5400500", "lng": "-99.1953800"}, {"name": "Tlaquepaque", "pop": 650123, "lat": "20.6412100", "lng": "-103.2934200"}, {"name": "Coyoacán", "pop": 614447, "lat": "19.3467000", "lng": "-99.1617400"}, {"name": "Tuxtla", "pop": 604147, "lat": "16.7535700", "lng": "-93.1157800"}, {"name": "Reynosa", "pop": 589466, "lat": "26.0800500", "lng": "-98.2845600"}, {"name": "Tlalpan", "pop": 574577, "lat": "19.2951300", "lng": "-99.1620600"}, {"name": "Cuautitlán Izcalli", "pop": 555163, "lat": "19.6438800", "lng": "-99.2159800"}, {"name": "Cuauhtémoc", "pop": 531831, "lat": "19.4450600", "lng": "-99.1461200"}, {"name": "Victoria de Durango", "pop": 518709, "lat": "24.0203200", "lng": "-104.6575600"}, {"name": "Heroica Matamoros", "pop": 510739, "lat": "25.8797200", "lng": "-97.5041700"}, {"name": "Toluca", "pop": 489333, "lat": "19.2878600", "lng": "-99.6532400"}, {"name": "Ciudad López Mateos", "pop": 489160, "lat": "19.5579300", "lng": "-99.2567500"}, {"name": "Ciudad Apodaca", "pop": 467157, "lat": "25.7819500", "lng": "-100.1883900"}, {"name": "Ciudad General Escobedo", "pop": 454967, "lat": "25.7969800", "lng": "-100.3179100"}, {"name": "Ensenada", "pop": 443807, "lat": "31.8714900", "lng": "-116.6007100"}, {"name": "Xochimilco", "pop": 442178, "lat": "19.2546500", "lng": "-99.1035600"}, {"name": "Veracruz", "pop": 428323, "lat": "19.1809500", "lng": "-96.1429000"}, {"name": "Xalapa de Enríquez", "pop": 424755, "lat": "19.5312400", "lng": "-96.9158900"}, {"name": "Nuevo Laredo", "pop": 416055, "lat": "27.4762900", "lng": "-99.5163900"}, {"name": "Azcapotzalco", "pop": 414711, "lat": "19.4869800", "lng": "-99.1859400"}, {"name": "San Nicolás de los Garza", "pop": 412199, "lat": "25.7416700", "lng": "-100.3022200"}, {"name": "Tonalá", "pop": 408759, "lat": "20.6226300", "lng": "-103.2416800"}, {"name": "Ojo de Agua", "pop": 386290, "lat": "19.6802800", "lng": "-99.0100000"}, {"name": "Xico", "pop": 384327, "lat": "19.2703200", "lng": "-98.9508800"}, {"name": "Iztacalco", "pop": 384326, "lat": "19.3952800", "lng": "-99.0977800"}, {"name": "Mazatlán", "pop": 381583, "lat": "23.2216300", "lng": "-106.4188500"}, {"name": "Irapuato", "pop": 380941, "lat": "20.6767500", "lng": "-101.3562800"}, {"name": "Miguel Hidalgo", "pop": 372889, "lat": "19.4341100", "lng": "-99.2002400"}, {"name": "Benito Juarez", "pop": 355017, "lat": "19.3984000", "lng": "-99.1576600"}, {"name": "Tapachula", "pop": 353706, "lat": "14.9054100", "lng": "-92.2589100"}, {"name": "Villahermosa", "pop": 353577, "lat": "17.9862500", "lng": "-92.9392800"}, {"name": "Celaya", "pop": 340387, "lat": "20.5235300", "lng": "-100.8157000"}, {"name": "Cuernavaca", "pop": 338650, "lat": "18.9261000", "lng": "-99.2307500"}, {"name": "Tepic", "pop": 332863, "lat": "21.5073300", "lng": "-104.8933200"}, {"name": "Ciudad Victoria", "pop": 332100, "lat": "23.7406100", "lng": "-99.1436400"}, {"name": "Soledad de Graciano Sánchez", "pop": 332072, "lat": "22.1891200", "lng": "-100.9379200"}, {"name": "Ciudad Obregón", "pop": 329404, "lat": "27.4864200", "lng": "-109.9407900"}, {"name": "Ixtapaluca", "pop": 322271, "lat": "19.3155600", "lng": "-98.8828400"}, {"name": "Coatzacoalcos", "pop": 310698, "lat": "18.1490500", "lng": "-94.4447000"}, {"name": "Tampico", "pop": 309003, "lat": "22.2851900", "lng": "-97.8777700"}, {"name": "Ciudad Benito Juárez", "pop": 308285, "lat": "25.6472400", "lng": "-100.0958200"}, {"name": "Tláhuac", "pop": 305076, "lat": "19.2868900", "lng": "-99.0050700"}, {"name": "Santa Catarina", "pop": 304052, "lat": "25.6732500", "lng": "-100.4581300"}, {"name": "Uruapan", "pop": 299523, "lat": "19.4111600", "lng": "-102.0564400"}, {"name": "Cholula", "pop": 292881, "lat": "19.0640600", "lng": "-98.3035200"}, {"name": "Nicolás Romero", "pop": 281799, "lat": "19.6417700", "lng": "-99.3068000"}, {"name": "Zumpango", "pop": 280455, "lat": "19.7967000", "lng": "-99.0994600"}, {"name": "Coacalco", "pop": 277959, "lat": "19.6292300", "lng": "-99.1068900"}, {"name": "Nogales", "pop": 264782, "lat": "31.3086200", "lng": "-110.9421700"}, {"name": "Gómez Palacio", "pop": 257352, "lat": "25.5687100", "lng": "-103.4996000"}, {"name": "Los Mochis", "pop": 256613, "lat": "25.7909700", "lng": "-108.9982500"}, {"name": "Pachuca de Soto", "pop": 256584, "lat": "20.1169700", "lng": "-98.7332900"}, {"name": "Oaxaca", "pop": 255029, "lat": "17.0602500", "lng": "-96.7254400"}, {"name": "La Paz", "pop": 250141, "lat": "24.1423100", "lng": "-110.3131600"}], "RU": [{"name": "Moscow", "pop": 10381222, "lat": "55.7520400", "lng": "37.6178100"}, {"name": "Saint Petersburg", "pop": 5351935, "lat": "59.9386300", "lng": "30.3141300"}, {"name": "Novosibirsk", "pop": 1612833, "lat": "55.0225900", "lng": "82.9317500"}, {"name": "Yekaterinburg", "pop": 1495066, "lat": "56.8573300", "lng": "60.6152900"}, {"name": "Nizhniy Novgorod", "pop": 1259013, "lat": "56.3286700", "lng": "44.0020500"}, {"name": "Kazan", "pop": 1243500, "lat": "55.7887400", "lng": "49.1221400"}, {"name": "Chelyabinsk", "pop": 1202371, "lat": "55.1611000", "lng": "61.4287700"}, {"name": "Omsk", "pop": 1172070, "lat": "54.9924400", "lng": "73.3685900"}, {"name": "Samara", "pop": 1163399, "lat": "53.2076700", "lng": "50.1355300"}, {"name": "Rostov-na-Donu", "pop": 1130305, "lat": "47.2199700", "lng": "39.7076900"}, {"name": "Ufa", "pop": 1120547, "lat": "54.7430600", "lng": "55.9677900"}, {"name": "Krasnoyarsk", "pop": 1090811, "lat": "56.0374200", "lng": "92.9313600"}, {"name": "Voronezh", "pop": 1047549, "lat": "51.6683300", "lng": "39.1920400"}, {"name": "Volgograd", "pop": 1013533, "lat": "48.7137800", "lng": "44.4976000"}, {"name": "Perm", "pop": 982419, "lat": "58.0104600", "lng": "56.2501700"}, {"name": "Krasnodar", "pop": 899541, "lat": "45.0453400", "lng": "38.9817800"}, {"name": "Saratov", "pop": 844858, "lat": "51.5404800", "lng": "45.9901000"}, {"name": "Tyumen", "pop": 768358, "lat": "57.1522200", "lng": "65.5272200"}, {"name": "Tolyatti", "pop": 702879, "lat": "53.5303000", "lng": "49.3461000"}, {"name": "Izhevsk", "pop": 648213, "lat": "56.8522500", "lng": "53.1986200"}, {"name": "Barnaul", "pop": 632372, "lat": "53.3619900", "lng": "83.7278600"}, {"name": "Ulyanovsk", "pop": 626540, "lat": "54.3282400", "lng": "48.3865700"}, {"name": "Irkutsk", "pop": 623869, "lat": "52.2956600", "lng": "104.2907600"}, {"name": "Khabarovsk", "pop": 618150, "lat": "48.4620400", "lng": "135.0971000"}, {"name": "Yaroslavl", "pop": 608722, "lat": "57.6298700", "lng": "39.8736800"}, {"name": "Vladivostok", "pop": 604901, "lat": "43.1056200", "lng": "131.8735300"}, {"name": "Makhachkala", "pop": 596356, "lat": "42.9778200", "lng": "47.5002700"}, {"name": "Tomsk", "pop": 574002, "lat": "56.5004900", "lng": "84.9821600"}, {"name": "Orenburg", "pop": 564773, "lat": "51.7671200", "lng": "55.0988300"}, {"name": "Kemerovo", "pop": 558973, "lat": "55.3541700", "lng": "86.1043500"}, {"name": "Novokuznetsk", "pop": 539616, "lat": "53.7575200", "lng": "87.1359900"}, {"name": "Ryazan’", "pop": 538962, "lat": "54.6269600", "lng": "39.7041500"}, {"name": "Astrakhan", "pop": 533925, "lat": "46.3496800", "lng": "48.0407600"}, {"name": "Penza", "pop": 523553, "lat": "53.1956800", "lng": "45.0107500"}, {"name": "Naberezhnyye Chelny", "pop": 509870, "lat": "55.7371800", "lng": "52.4196100"}, {"name": "Lipetsk", "pop": 509735, "lat": "52.5876000", "lng": "39.5515100"}, {"name": "Kirov", "pop": 507155, "lat": "58.5980900", "lng": "49.6578300"}, {"name": "Cheboksary", "pop": 492331, "lat": "56.1321800", "lng": "47.2460000"}, {"name": "Tula", "pop": 482873, "lat": "54.1960900", "lng": "37.6182200"}, {"name": "Kaliningrad", "pop": 475056, "lat": "54.7063900", "lng": "20.5110200"}, {"name": "Kursk", "pop": 448733, "lat": "51.7268900", "lng": "36.1845700"}, {"name": "Stavropol’", "pop": 433931, "lat": "45.0344200", "lng": "41.9642000"}, {"name": "Bryansk", "pop": 427236, "lat": "53.2709600", "lng": "34.3214300"}, {"name": "Tver", "pop": 420065, "lat": "56.8583600", "lng": "35.9005700"}, {"name": "Magnitogorsk", "pop": 413351, "lat": "53.3980800", "lng": "59.0066000"}, {"name": "Ivanovo", "pop": 406113, "lat": "56.9998800", "lng": "40.9725700"}, {"name": "Nizhny Tagil", "pop": 381116, "lat": "57.9194400", "lng": "59.9650000"}, {"name": "Ulan-Ude", "pop": 360278, "lat": "51.8264800", "lng": "107.5997900"}, {"name": "Vladimir", "pop": 357024, "lat": "56.1385400", "lng": "40.3997600"}, {"name": "Arkhangel’sk", "pop": 349742, "lat": "64.5461000", "lng": "40.5518300"}, {"name": "Chita", "pop": 349005, "lat": "52.0431100", "lng": "113.4917100"}, {"name": "Belgorod", "pop": 345289, "lat": "50.6034300", "lng": "36.5809100"}, {"name": "Kaluga", "pop": 340851, "lat": "54.5306300", "lng": "36.2700000"}, {"name": "Smolensk", "pop": 330025, "lat": "54.7782600", "lng": "32.0508800"}, {"name": "Sochi", "pop": 327608, "lat": "43.5969900", "lng": "39.7247700"}, {"name": "Volzhsky", "pop": 323293, "lat": "48.7858300", "lng": "44.7797300"}, {"name": "Saransk", "pop": 318841, "lat": "54.1848500", "lng": "45.1716600"}, {"name": "Cherepovets", "pop": 315738, "lat": "59.1333300", "lng": "37.9000000"}, {"name": "Vologda", "pop": 312420, "lat": "59.2239000", "lng": "39.8839800"}, {"name": "Kurgan", "pop": 309285, "lat": "55.4490500", "lng": "65.3434400"}, {"name": "Vladikavkaz", "pop": 306258, "lat": "43.0410100", "lng": "44.6698600"}, {"name": "Orël", "pop": 303696, "lat": "52.9687900", "lng": "36.0791000"}, {"name": "Surgut", "pop": 300367, "lat": "61.2575700", "lng": "73.4177500"}, {"name": "Grozny", "pop": 297137, "lat": "43.3119500", "lng": "45.6889500"}, {"name": "Murmansk", "pop": 295374, "lat": "68.9677800", "lng": "33.0992200"}, {"name": "Tambov", "pop": 293661, "lat": "52.7363200", "lng": "41.4410200"}, {"name": "Petrozavodsk", "pop": 279190, "lat": "61.7849100", "lng": "34.3469100"}, {"name": "Taganrog", "pop": 279056, "lat": "47.2362700", "lng": "38.9053000"}, {"name": "Kostroma", "pop": 277280, "lat": "57.7663800", "lng": "40.9282800"}, {"name": "Komsomolsk-on-Amur", "pop": 275908, "lat": "50.5503400", "lng": "137.0099500"}, {"name": "Yoshkar-Ola", "pop": 268272, "lat": "56.6387700", "lng": "47.8907800"}, {"name": "Sterlitamak", "pop": 267231, "lat": "53.6379300", "lng": "55.9533000"}, {"name": "Bratsk", "pop": 256600, "lat": "56.1325000", "lng": "101.6141700"}], "BD": [{"name": "Dhaka", "pop": 10356500, "lat": "23.7104000", "lng": "90.4074400"}, {"name": "Chattogram", "pop": 3920222, "lat": "22.3384000", "lng": "91.8316800"}, {"name": "Gazipur", "pop": 2674697, "lat": "23.9984400", "lng": "90.4223400"}, {"name": "Khulna", "pop": 1500689, "lat": "22.8097900", "lng": "89.5643900"}, {"name": "Rangpur", "pop": 1031388, "lat": "25.7466400", "lng": "89.2516600"}, {"name": "Comilla", "pop": 1030000, "lat": "23.4618600", "lng": "91.1850300"}, {"name": "Rajshahi", "pop": 763580, "lat": "24.3740000", "lng": "88.6011400"}, {"name": "Mohāmmadpur", "pop": 527571, "lat": "24.8984300", "lng": "88.5284400"}, {"name": "Hāthazāri", "pop": 498179, "lat": "22.5051500", "lng": "91.8133900"}, {"name": "Bāndarban", "pop": 495272, "lat": "22.1953400", "lng": "92.2194600"}, {"name": "Shibganj", "pop": 378701, "lat": "25.0014600", "lng": "89.3226600"}, {"name": "Natore", "pop": 369138, "lat": "24.4111200", "lng": "88.9867300"}, {"name": "Kāfrul", "pop": 339734, "lat": "23.7882200", "lng": "90.3735900"}, {"name": "Tungi", "pop": 337579, "lat": "23.8915400", "lng": "90.4023200"}, {"name": "Bhātāra", "pop": 324300, "lat": "23.8000000", "lng": "90.4500000"}, {"name": "Savar", "pop": 286008, "lat": "23.8485800", "lng": "90.2500200"}, {"name": "Narsingdi", "pop": 281080, "lat": "23.9229800", "lng": "90.7176800"}, {"name": "Nagar Naluākot", "pop": 273000, "lat": "24.1560800", "lng": "90.7728000"}, {"name": "Bagerhat", "pop": 266388, "lat": "22.6565700", "lng": "89.7912300"}, {"name": "Brāhmanbāria", "pop": 264326, "lat": "23.9746400", "lng": "91.1122800"}, {"name": "Cox’s Bāzār", "pop": 253788, "lat": "21.4397300", "lng": "92.0095500"}], "KR": [{"name": "Seoul", "pop": 10349312, "lat": "37.5660000", "lng": "126.9784000"}, {"name": "Busan", "pop": 3343903, "lat": "35.1016800", "lng": "129.0300400"}, {"name": "Incheon", "pop": 3039450, "lat": "37.4564600", "lng": "126.7051500"}, {"name": "Daegu", "pop": 2365523, "lat": "35.8702800", "lng": "128.5911100"}, {"name": "Daejeon", "pop": 1470336, "lat": "36.3491300", "lng": "127.3849300"}, {"name": "Gwangju", "pop": 1398538, "lat": "35.1547200", "lng": "126.9155600"}, {"name": "Suwon", "pop": 1191063, "lat": "37.2911100", "lng": "127.0088900"}, {"name": "Ulsan", "pop": 1095014, "lat": "35.5372200", "lng": "129.3166700"}, {"name": "Goyang-si", "pop": 1061752, "lat": "37.6563900", "lng": "126.8350000"}, {"name": "Changwon", "pop": 1025702, "lat": "35.2280600", "lng": "128.6811100"}, {"name": "Seongnam-si", "pop": 914832, "lat": "37.4386100", "lng": "127.1377800"}, {"name": "Cheongju-si", "pop": 853938, "lat": "36.6372200", "lng": "127.4897200"}, {"name": "Bucheon-si", "pop": 850731, "lat": "37.4988900", "lng": "126.7830600"}, {"name": "Cheonan", "pop": 658831, "lat": "36.8065000", "lng": "127.1522000"}, {"name": "Hwaseong-si", "pop": 640890, "lat": "37.2068200", "lng": "126.8169000"}, {"name": "Jeonju", "pop": 629618, "lat": "35.8219400", "lng": "127.1488900"}, {"name": "Ansan-si", "pop": 623256, "lat": "37.3236100", "lng": "126.8219400"}, {"name": "Anyang-si", "pop": 595644, "lat": "37.3925000", "lng": "126.9269400"}, {"name": "Kimhae", "pop": 531966, "lat": "35.2341700", "lng": "128.8811100"}, {"name": "Pohang", "pop": 492041, "lat": "36.0291700", "lng": "129.3648100"}, {"name": "Jeju City", "pop": 488844, "lat": "33.5097200", "lng": "126.5219400"}, {"name": "Uijeongbu-si", "pop": 479141, "lat": "37.7415000", "lng": "127.0474000"}, {"name": "Masan", "pop": 434371, "lat": "35.1272500", "lng": "126.8314900"}, {"name": "Gumi", "pop": 404691, "lat": "36.1136000", "lng": "128.3360000"}, {"name": "Sejong", "pop": 394630, "lat": "36.5924500", "lng": "127.2922300"}, {"name": "Pyeongtaek", "pop": 364694, "lat": "36.9947200", "lng": "127.0888900"}, {"name": "Yangsan", "pop": 358074, "lat": "35.3419900", "lng": "129.0335800"}, {"name": "Gwangmyeong", "pop": 357545, "lat": "37.4772200", "lng": "126.8663900"}, {"name": "Wŏnju", "pop": 332849, "lat": "37.3513900", "lng": "127.9452800"}, {"name": "Chinju", "pop": 307242, "lat": "35.1927800", "lng": "128.0847200"}, {"name": "Iksan", "pop": 307000, "lat": "35.9438900", "lng": "126.9544400"}, {"name": "Gunpo", "pop": 286485, "lat": "37.3675000", "lng": "126.9469400"}, {"name": "Chuncheon", "pop": 286124, "lat": "37.8747200", "lng": "127.7341700"}, {"name": "Suncheon", "pop": 276375, "lat": "34.9505000", "lng": "127.4878400"}, {"name": "Yeosu", "pop": 268823, "lat": "34.7606200", "lng": "127.6621500"}, {"name": "Mokpo", "pop": 268402, "lat": "34.8128200", "lng": "126.3918100"}, {"name": "Gyeongsan-si", "pop": 266951, "lat": "35.8233300", "lng": "128.7377800"}, {"name": "Gunsan", "pop": 264656, "lat": "35.9786100", "lng": "126.7113900"}, {"name": "Hanam", "pop": 254415, "lat": "37.5400000", "lng": "127.2055600"}], "JP": [{"name": "Tokyo", "pop": 9733276, "lat": "35.6895000", "lng": "139.6917100"}, {"name": "Yokohama", "pop": 3777491, "lat": "35.4333300", "lng": "139.6500000"}, {"name": "Osaka", "pop": 2753862, "lat": "34.6937900", "lng": "135.5010700"}, {"name": "Nagoya", "pop": 2332176, "lat": "35.1814700", "lng": "136.9064100"}, {"name": "Sapporo", "pop": 1973832, "lat": "43.0666700", "lng": "141.3500000"}, {"name": "Fukuoka", "pop": 1612392, "lat": "33.6000000", "lng": "130.4166700"}, {"name": "Kawasaki", "pop": 1538262, "lat": "35.5205600", "lng": "139.7172200"}, {"name": "Kobe", "pop": 1525152, "lat": "34.6913000", "lng": "135.1830000"}, {"name": "Kyoto", "pop": 1463723, "lat": "35.0210700", "lng": "135.7538500"}, {"name": "Saitama", "pop": 1324854, "lat": "35.9080700", "lng": "139.6565700"}, {"name": "Hiroshima", "pop": 1200754, "lat": "34.4000000", "lng": "132.4500000"}, {"name": "Sendai", "pop": 1096704, "lat": "38.2666700", "lng": "140.8666700"}, {"name": "Chiba", "pop": 979768, "lat": "35.6000000", "lng": "140.1166700"}, {"name": "Kitakyushu", "pop": 940978, "lat": "33.8518100", "lng": "130.8503400"}, {"name": "Sakai", "pop": 826161, "lat": "34.5821600", "lng": "135.4665300"}, {"name": "Niigata", "pop": 797591, "lat": "37.9225900", "lng": "139.0412500"}, {"name": "Hamamatsu", "pop": 791707, "lat": "34.7000000", "lng": "137.7333300"}, {"name": "Ōta", "pop": 748081, "lat": "35.5612600", "lng": "139.7160500"}, {"name": "Kumamoto", "pop": 738907, "lat": "32.8058900", "lng": "130.6918100"}, {"name": "Aihara", "pop": 725493, "lat": "35.6000000", "lng": "139.3166700"}, {"name": "Okayama", "pop": 724691, "lat": "34.6500000", "lng": "133.9333300"}, {"name": "Sagamihara", "pop": 720780, "lat": "35.5670700", "lng": "139.2416700"}, {"name": "Shizuoka", "pop": 693389, "lat": "34.9833300", "lng": "138.3833300"}, {"name": "Kawaguchi", "pop": 607373, "lat": "35.8052100", "lng": "139.7107200"}, {"name": "Kagoshima", "pop": 595049, "lat": "31.5666700", "lng": "130.5500000"}, {"name": "Hachiōji", "pop": 579355, "lat": "35.6558300", "lng": "139.3238900"}, {"name": "Kotō", "pop": 543730, "lat": "32.7785600", "lng": "130.7453700"}, {"name": "Himeji", "pop": 530495, "lat": "34.8166700", "lng": "134.7000000"}, {"name": "Utsunomiya", "pop": 518757, "lat": "36.5666700", "lng": "139.8833300"}, {"name": "Matsuyama", "pop": 511192, "lat": "33.8391600", "lng": "132.7657400"}, {"name": "Matsudo", "pop": 498575, "lat": "35.7799500", "lng": "139.9014400"}, {"name": "Higashiosaka", "pop": 493940, "lat": "34.6666700", "lng": "135.5833300"}, {"name": "Nishinomiya", "pop": 485587, "lat": "34.7156200", "lng": "135.3319900"}, {"name": "Kurashiki", "pop": 483576, "lat": "34.5833300", "lng": "133.7666700"}, {"name": "Ōita", "pop": 477715, "lat": "33.2333300", "lng": "131.6000000"}, {"name": "Fukuyama", "pop": 468812, "lat": "34.4833300", "lng": "133.3666700"}, {"name": "Kanazawa", "pop": 466029, "lat": "36.6000000", "lng": "136.6166700"}, {"name": "Amagasaki", "pop": 459593, "lat": "34.7166700", "lng": "135.4166700"}, {"name": "Katsushika", "pop": 453093, "lat": "35.7333300", "lng": "139.8500000"}, {"name": "Fujisawa", "pop": 439728, "lat": "35.3492600", "lng": "139.4766600"}, {"name": "Kashiwa", "pop": 433436, "lat": "35.8622400", "lng": "139.9773200"}, {"name": "Machida", "pop": 431079, "lat": "35.5402800", "lng": "139.4508300"}, {"name": "Toyota", "pop": 426162, "lat": "35.0833300", "lng": "137.1500000"}, {"name": "Shinagawa", "pop": 422488, "lat": "33.6362700", "lng": "133.0057200"}, {"name": "Takamatsu", "pop": 418994, "lat": "34.3333300", "lng": "134.0500000"}, {"name": "Toyama", "pop": 415844, "lat": "36.7000000", "lng": "137.2166700"}, {"name": "Yokosuka", "pop": 409478, "lat": "35.2836100", "lng": "139.6672200"}, {"name": "Nagasaki", "pop": 409118, "lat": "32.7500000", "lng": "129.8833300"}, {"name": "Hirakata", "pop": 406331, "lat": "34.8135200", "lng": "135.6491400"}, {"name": "Gifu", "pop": 402557, "lat": "35.4229100", "lng": "136.7603900"}, {"name": "Toyonaka", "pop": 401558, "lat": "34.7824400", "lng": "135.4693200"}, {"name": "Miyazaki", "pop": 401339, "lat": "31.9166700", "lng": "131.4166700"}, {"name": "Suita", "pop": 385567, "lat": "34.7614300", "lng": "135.5156700"}, {"name": "Okazaki", "pop": 384654, "lat": "34.9500000", "lng": "137.1666700"}, {"name": "Ichinomiya", "pop": 380073, "lat": "35.3000000", "lng": "136.8000000"}, {"name": "Toyohashi", "pop": 377453, "lat": "34.7666700", "lng": "137.3833300"}, {"name": "Minato", "pop": 375339, "lat": "34.2152000", "lng": "135.1501000"}, {"name": "Takasaki", "pop": 372973, "lat": "36.3333300", "lng": "139.0166700"}, {"name": "Nagano", "pop": 372760, "lat": "36.6500000", "lng": "138.1833300"}, {"name": "Nara-shi", "pop": 367353, "lat": "34.6850500", "lng": "135.8048500"}, {"name": "Iwaki", "pop": 357309, "lat": "37.0500000", "lng": "140.8833300"}, {"name": "Wakayama", "pop": 356729, "lat": "34.2333300", "lng": "135.1666700"}, {"name": "Kawagoe", "pop": 354571, "lat": "35.9086100", "lng": "139.4852800"}, {"name": "Takatsuki", "pop": 354468, "lat": "34.8483300", "lng": "135.6167800"}, {"name": "Koshigaya", "pop": 345353, "lat": "35.8903500", "lng": "139.7891600"}, {"name": "Ōtsu", "pop": 345070, "lat": "35.0000000", "lng": "135.8666700"}, {"name": "Nakano", "pop": 344880, "lat": "35.7044900", "lng": "139.6694600"}, {"name": "Tokorozawa", "pop": 344194, "lat": "35.7991600", "lng": "139.4690300"}, {"name": "Asahikawa", "pop": 333530, "lat": "43.7706300", "lng": "142.3648900"}, {"name": "Maebashi", "pop": 332149, "lat": "36.4000000", "lng": "139.0833300"}, {"name": "Kita", "pop": 332140, "lat": "35.7526400", "lng": "139.7334800"}, {"name": "Kochi", "pop": 332059, "lat": "33.5500000", "lng": "133.5333300"}, {"name": "Kōriyama", "pop": 327692, "lat": "37.4000000", "lng": "140.3833300"}, {"name": "Naha", "pop": 317625, "lat": "26.2130000", "lng": "127.6785100"}, {"name": "Kasugai", "pop": 308681, "lat": "35.2476200", "lng": "136.9722900"}, {"name": "Akita", "pop": 307672, "lat": "39.7166700", "lng": "140.1166700"}, {"name": "Yokkaichi", "pop": 305424, "lat": "34.9666700", "lng": "136.6166700"}, {"name": "Akashi", "pop": 303601, "lat": "34.6552400", "lng": "135.0068700"}, {"name": "Kurume", "pop": 303579, "lat": "33.3166700", "lng": "130.5166700"}, {"name": "Aomori", "pop": 298394, "lat": "40.8166700", "lng": "140.7333300"}, {"name": "Fukushima", "pop": 294237, "lat": "37.7500000", "lng": "140.4666700"}, {"name": "Morioka", "pop": 290700, "lat": "39.7000000", "lng": "141.1500000"}, {"name": "Ibaraki", "pop": 287730, "lat": "34.8164100", "lng": "135.5682800"}, {"name": "Ichihara", "pop": 283531, "lat": "35.5166700", "lng": "140.0833300"}, {"name": "Hakodate", "pop": 275730, "lat": "41.7758300", "lng": "140.7366700"}, {"name": "Tsu", "pop": 274537, "lat": "34.7333300", "lng": "136.5166700"}, {"name": "Yao", "pop": 273213, "lat": "34.6166700", "lng": "135.6000000"}, {"name": "Kakogawachō-honmachi", "pop": 271634, "lat": "34.7694300", "lng": "134.8290500"}, {"name": "Mito", "pop": 270685, "lat": "36.3500000", "lng": "140.4500000"}, {"name": "Tokushima", "pop": 267345, "lat": "34.0666700", "lng": "134.5666700"}, {"name": "Nagaoka", "pop": 266936, "lat": "37.4500000", "lng": "138.8500000"}, {"name": "Shimonoseki", "pop": 265684, "lat": "33.9554800", "lng": "130.9371300"}, {"name": "Fuchū", "pop": 262790, "lat": "35.6745200", "lng": "139.4821600"}, {"name": "Fukui-shi", "pop": 262328, "lat": "36.0644300", "lng": "136.2225700"}, {"name": "Minato City", "pop": 260486, "lat": "35.6581000", "lng": "139.7515000"}, {"name": "Hiratsuka", "pop": 258422, "lat": "35.3278500", "lng": "139.3373500"}], "EG": [{"name": "Cairo", "pop": 9606916, "lat": "30.0626300", "lng": "31.2496700"}, {"name": "Alexandria", "pop": 5263542, "lat": "31.2017600", "lng": "29.9158200"}, {"name": "Giza", "pop": 4367343, "lat": "30.0094400", "lng": "31.2086100"}, {"name": "Shubrā al Khaymah", "pop": 1240289, "lat": "30.1251100", "lng": "31.2505300"}, {"name": "Port Said", "pop": 780515, "lat": "31.2653100", "lng": "32.3019000"}, {"name": "Suez", "pop": 699541, "lat": "29.9737100", "lng": "32.5262700"}, {"name": "Al Mansurah", "pop": 621953, "lat": "31.0363700", "lng": "31.3806900"}, {"name": "Al Maḩallah al Kubrá", "pop": 592573, "lat": "30.9706300", "lng": "31.1669000"}, {"name": "Tanta", "pop": 576648, "lat": "30.7884700", "lng": "31.0019200"}, {"name": "Assiut", "pop": 528669, "lat": "27.1809600", "lng": "31.1836800"}, {"name": "Al Fayyum", "pop": 519047, "lat": "29.3099500", "lng": "30.8418000"}, {"name": "Al Khuşūş", "pop": 488904, "lat": "30.1529300", "lng": "31.3150100"}, {"name": "Zagazig", "pop": 430445, "lat": "30.5876800", "lng": "31.5020000"}, {"name": "Ismailia", "pop": 429465, "lat": "30.6042700", "lng": "32.2722500"}, {"name": "Luxor", "pop": 422407, "lat": "25.6989300", "lng": "32.6421000"}, {"name": "Aswān", "pop": 379774, "lat": "24.0908200", "lng": "32.8994200"}, {"name": "6th of October City", "pop": 368650, "lat": "29.8166700", "lng": "31.0500000"}, {"name": "Damanhur", "pop": 318207, "lat": "31.0340800", "lng": "30.4682300"}, {"name": "New Cairo", "pop": 313139, "lat": "30.0300000", "lng": "31.4700000"}, {"name": "Damietta", "pop": 305920, "lat": "31.4164800", "lng": "31.8133200"}, {"name": "Minya", "pop": 283605, "lat": "28.0919300", "lng": "30.7581300"}, {"name": "Banī Suwayf", "pop": 273151, "lat": "29.0744100", "lng": "31.0978500"}, {"name": "Shibīn al Kawm", "pop": 267945, "lat": "30.5525800", "lng": "31.0090400"}, {"name": "Sohag", "pop": 266944, "lat": "26.5569500", "lng": "31.6947800"}, {"name": "Qina", "pop": 252883, "lat": "26.1641800", "lng": "32.7267100"}], "ZA": [{"name": "Johannesburg", "pop": 9418183, "lat": "-26.2022700", "lng": "28.0436300"}, {"name": "Cape Town", "pop": 4772846, "lat": "-33.9258400", "lng": "18.4232200"}, {"name": "Durban", "pop": 3338026, "lat": "-29.8579000", "lng": "31.0292000"}, {"name": "Pretoria", "pop": 2112693, "lat": "-25.7448600", "lng": "28.1878300"}, {"name": "Soweto", "pop": 1695047, "lat": "-26.2678100", "lng": "27.8584900"}, {"name": "Port Elizabeth", "pop": 1050078, "lat": "-33.9610900", "lng": "25.6149400"}, {"name": "Soshanguve", "pop": 872309, "lat": "-25.4728800", "lng": "28.0991900"}, {"name": "Pietermaritzburg", "pop": 839327, "lat": "-29.6167900", "lng": "30.3927800"}, {"name": "Evaton", "pop": 725468, "lat": "-26.5333300", "lng": "27.8500000"}, {"name": "Benoni", "pop": 605344, "lat": "-26.1884800", "lng": "28.3207800"}, {"name": "Bloemfontein", "pop": 556637, "lat": "-29.1210700", "lng": "26.2140000"}, {"name": "Thembisa", "pop": 511655, "lat": "-25.9963600", "lng": "28.2268000"}, {"name": "East London", "pop": 478676, "lat": "-33.0152900", "lng": "27.9116200"}, {"name": "Vereeniging", "pop": 474681, "lat": "-26.6731300", "lng": "27.9261500"}, {"name": "Boksburg", "pop": 445168, "lat": "-26.2119700", "lng": "28.2595800"}, {"name": "Welkom", "pop": 431944, "lat": "-27.9774200", "lng": "26.7350600"}, {"name": "Newcastle", "pop": 404838, "lat": "-27.7579600", "lng": "29.9318000"}, {"name": "Krugersdorp", "pop": 378821, "lat": "-26.0857700", "lng": "27.7751500"}, {"name": "Rustenburg", "pop": 373695, "lat": "-25.6675600", "lng": "27.2420800"}, {"name": "Emalahleni", "pop": 373403, "lat": "-25.8713300", "lng": "29.2332300"}, {"name": "Randburg", "pop": 337053, "lat": "-26.0941000", "lng": "28.0012300"}, {"name": "Roodepoort", "pop": 326416, "lat": "-26.1625000", "lng": "27.8725000"}, {"name": "Botshabelo", "pop": 309714, "lat": "-29.2673700", "lng": "26.7259500"}, {"name": "Brakpan", "pop": 305692, "lat": "-26.2365600", "lng": "28.3693800"}, {"name": "Kariega", "pop": 291052, "lat": "-33.7556200", "lng": "25.4007400"}, {"name": "Polokwane", "pop": 272461, "lat": "-23.9044900", "lng": "29.4688500"}, {"name": "Richards Bay", "pop": 252968, "lat": "-28.7830100", "lng": "32.0376800"}], "GB": [{"name": "London", "pop": 8961989, "lat": "51.5085300", "lng": "-0.1257400"}, {"name": "Birmingham", "pop": 1157603, "lat": "52.4814200", "lng": "-1.8998300"}, {"name": "Glasgow", "pop": 626410, "lat": "55.8651500", "lng": "-4.2576300"}, {"name": "Manchester", "pop": 568996, "lat": "53.4809500", "lng": "-2.2374300"},